{"_id":{"$oid":"52cdef7c4bab8bd675297dae"},"name":"Thoof","founded_year":{"$numberInt":"2006"},"deadpooled_year":{"$numberInt":"2013"},"description":null,"total_money_raised":"$1M","offices":{"description":null,"address1":null,"address2":null,"zip_code":null,"city":"Austin","state_code":"TX","country_code":"USA","latitude":{"$numberDouble":"30.268735"},"longitude":{"$numberDouble":"-97.745209"},"location":{"type":"Point","coordinates":[{"$numberDouble":"-97.745209"},{"$numberDouble":"30.268735"}]}}}
{"_id":{"$oid":"52cdef7c4bab8bd675297e32"},"name":"Vast","founded_year":{"$numberInt":"2001"},"deadpooled_year":null,"description":"","total_money_raised":"$0","offices":{"description":"Vast Austin","address1":"200 E. 6th Street","address2":"Suite 201","zip_code":"78701","city":"Austin","state_code":"TX","country_code":"USA","latitude":null,"longitude":null}}
{"_id":{"$oid":"52cdef7c4bab8bd675297e3c"},"name":"Bazaarvoice","founded_year":{"$numberInt":"2005"},"deadpooled_year":null,"description":"Word of mouth marketing","total_money_raised":"$131M","offices":{"description":"Head Office","address1":"3900 N Capital of Texas Hwy","address2":"","zip_code":"78746","city":"Austin","state_code":"TX","country_code":"USA","latitude":{"$numberDouble":"30.407545"},"longitude":{"$numberDouble":"-97.717667"},"location":{"type":"Point","coordinates":[{"$numberDouble":"-97.717667"},{"$numberDouble":"30.407545"}]}}}
{"_id":{"$oid":"52cdef7c4bab8bd675297e4a"},"name":"Indeed","founded_year":{"$numberInt":"2004"},"deadpooled_year":null,"description":"Job Search Portal","total_money_raised":"$5M","offices":{"description":"Headquarters","address1":"7501 N. Capital of Texas Hwy","address2":"Building B","zip_code":"78731","city":"Austin","state_code":"TX","country_code":"USA","latitude":null,"longitude":null}}
{"_id":{"$oid":"52cdef7c4bab8bd675297dba"},"name":"Google","founded_year":{"$numberInt":"1998"},"deadpooled_year":null,"description":"","total_money_raised":"$555M","offices":{"description":"Google Austin","address1":"Plaza 7000","address2":"7000 North MoPac Expressway, 2nd Floor","zip_code":"78731","city":"Austin","state_code":"TX","country_code":"USA","latitude":{"$numberDouble":"30.351416"},"longitude":{"$numberDouble":"-97.751382"},"location":{"type":"Point","coordinates":[{"$numberDouble":"-97.751382"},{"$numberDouble":"30.351416"}]}}}
{"_id":{"$oid":"52cdef7c4bab8bd675297f69"},"name":"Spiceworks","founded_year":{"$numberInt":"2006"},"deadpooled_year":null,"description":"","total_money_raised":"$54M","offices":{"description":"World Headquarters","address1":"7300 FM 2222, Bldg 3","address2":"Suite 100","zip_code":"78730","city":"Austin","state_code":"TX","country_code":"USA","latitude":{"$numberDouble":"30.386601"},"longitude":{"$numberDouble":"-97.753739"},"location":{"type":"Point","coordinates":[{"$numberDouble":"-97.753739"},{"$numberDouble":"30.386601"}]}}}
{"_id":{"$oid":"52cdef7c4bab8bd675297f96"},"name":"GotStatus","founded_year":{"$numberInt":"2007"},"deadpooled_year":{"$numberInt":"2008"},"description":null,"total_money_raised":"$0","offices":{"description":null,"address1":null,"address2":null,"zip_code":"78731","city":"Austin","state_code":"TX","country_code":"USA","latitude":{"$numberDouble":"30.34497"},"longitude":{"$numberDouble":"-97.770174"},"location":{"type":"Point","coordinates":[{"$numberDouble":"-97.770174"},{"$numberDouble":"30.34497"}]}}}
{"_id":{"$oid":"52cdef7c4bab8bd675297fed"},"name":"Myxer","founded_year":{"$numberInt":"2005"},"deadpooled_year":null,"description":"Free, Personalized Internet Radio","total_money_raised":"$6.5M","offices":{"description":"Headquarters","address1":"5608 Parkcrest Drive","address2":"#350","zip_code":"78731","city":"Austin","state_code":"TX","country_code":"USA","latitude":null,"longitude":null}}
{"_id":{"$oid":"52cdef7c4bab8bd67529809a"},"name":"Shangby","founded_year":null,"deadpooled_year":null,"description":null,"total_money_raised":"$1M","offices":{"description":null,"address1":"10 Sundown Parkway","address2":null,"zip_code":"78746","city":"Austin","state_code":"TX","country_code":"USA","latitude":{"$numberDouble":"30.288653"},"longitude":{"$numberDouble":"-97.822884"},"location":{"type":"Point","coordinates":[{"$numberDouble":"-97.822884"},{"$numberDouble":"30.288653"}]}}}
{"_id":{"$oid":"52cdef7c4bab8bd6752980d1"},"name":"Springbox","founded_year":{"$numberInt":"2004"},"deadpooled_year":null,"description":"Interactive Marketing Services Agency","total_money_raised":"$0","offices":{"description":"Headquarters","address1":"708 Congress Avenue","address2":"","zip_code":"78701-3217","city":"Austin","state_code":"TX","country_code":"USA","latitude":{"$numberDouble":"30.269452"},"longitude":{"$numberDouble":"-97.742682"},"location":{"type":"Point","coordinates":[{"$numberDouble":"-97.742682"},{"$numberDouble":"30.269452"}]}}}
{"_id":{"$oid":"52cdef7c4bab8bd6752980d5"},"name":"uShip","founded_year":{"$numberInt":"2003"},"deadpooled_year":null,"description":"Global online transport marketplace","total_money_raised":"$44.7M","offices":{"description":"Headquarters","address1":"205 Brazos Street","address2":"","zip_code":"78701","city":"Austin","state_code":"TX","country_code":"USA","latitude":null,"longitude":null}}
{"_id":{"$oid":"52cdef7c4bab8bd675298104"},"name":"FiveRuns","founded_year":{"$numberInt":"2005"},"deadpooled_year":null,"description":"Computer Software","total_money_raised":"$9.2M","offices":{"description":"HQ","address1":"209 W. 9th Street","address2":"Suite 100","zip_code":"78701","city":"Austin","state_code":"TX","country_code":"USA","latitude":null,"longitude":null}}
{"_id":{"$oid":"52cdef7c4bab8bd67529812e"},"name":"Yodle","founded_year":{"$numberInt":"2005"},"deadpooled_year":null,"description":"Online Marketing for Local Businesses","total_money_raised":"$40M","offices":{"description":"Austin Office","address1":"9300 United Drive","address2":"Suite 180","zip_code":"78758","city":"Austin","state_code":"TX","country_code":"USA","latitude":{"$numberDouble":"30.378658"},"longitude":{"$numberDouble":"-97.731249"},"location":{"type":"Point","coordinates":[{"$numberDouble":"-97.731249"},{"$numberDouble":"30.378658"}]}}}
{"_id":{"$oid":"52cdef7c4bab8bd67529817c"},"name":"CareFlash","founded_year":{"$numberInt":"2007"},"deadpooled_year":null,"description":null,"total_money_raised":"$600k","offices":{"description":"CareFlash LLC","address1":"3800 North Lamar Blvd.","address2":"Ste 730-138","zip_code":"78756","city":"Austin","state_code":"TX","country_code":"USA","latitude":{"$numberDouble":"29.804863"},"longitude":{"$numberDouble":"-95.49158"},"location":{"type":"Point","coordinates":[{"$numberDouble":"-95.49158"},{"$numberDouble":"29.804863"}]}}}
{"_id":{"$oid":"52cdef7c4bab8bd67529817f"},"name":"RipCode","founded_year":{"$numberInt":"2006"},"deadpooled_year":{"$numberInt":"2012"},"description":"Transcoding software for video","total_money_raised":"$36.5M","offices":{"description":"","address1":"10814 Jollyville Road","address2":"Building IV, Suite 160","zip_code":"78759","city":"Austin","state_code":"TX","country_code":"USA","latitude":{"$numberDouble":"30.402252"},"longitude":{"$numberDouble":"-97.748795"},"location":{"type":"Point","coordinates":[{"$numberDouble":"-97.748795"},{"$numberDouble":"30.402252"}]}}}
{"_id":{"$oid":"52cdef7c4bab8bd67529818c"},"name":"HelioVolt","founded_year":{"$numberInt":"2001"},"deadpooled_year":null,"description":"","total_money_raised":"$253M","offices":{"description":null,"address1":"8201 E. Riverside Dr. Suite 600","address2":null,"zip_code":"78744-1604","city":"Austin","state_code":"TX","country_code":"USA","latitude":{"$numberDouble":"30.216908"},"longitude":{"$numberDouble":"-97.685078"},"location":{"type":"Point","coordinates":[{"$numberDouble":"-97.685078"},{"$numberDouble":"30.216908"}]}}}
{"_id":{"$oid":"52cdef7c4bab8bd675298193"},"name":"Challenge Games","founded_year":{"$numberInt":"2006"},"deadpooled_year":null,"description":"Online social games","total_money_raised":"$14.5M","offices":{"description":"Challenge Games","address1":"211 E 7th St","address2":"Suite 400","zip_code":"78701","city":"Austin","state_code":"TX","country_code":"USA","latitude":{"$numberDouble":"30.268236"},"longitude":{"$numberDouble":"-97.740651"},"location":{"type":"Point","coordinates":[{"$numberDouble":"-97.740651"},{"$numberDouble":"30.268236"}]}}}
{"_id":{"$oid":"52cdef7c4bab8bd6752981f3"},"name":"Mumboe","founded_year":{"$numberInt":"2005"},"deadpooled_year":{"$numberInt":"2012"},"description":"Easy, Affordable Contract Management","total_money_raised":"$4.5M","offices":{"description":"Headquarters","address1":"2100 Kramer Lane","address2":"Suite 900","zip_code":"78758","city":"Austin","state_code":"TX","country_code":"USA","latitude":{"$numberDouble":"30.390071"},"longitude":{"$numberDouble":"-97.711652"},"location":{"type":"Point","coordinates":[{"$numberDouble":"-97.711652"},{"$numberDouble":"30.390071"}]}}}
{"_id":{"$oid":"52cdef7c4bab8bd675298238"},"name":"BreakingPoint Systems","founded_year":{"$numberInt":"2005"},"deadpooled_year":null,"description":"","total_money_raised":"$20M","offices":{"description":"","address1":"3900 N. Capital of Texas Highway","address2":"","zip_code":"78746","city":"Austin","state_code":"TX","country_code":"USA","latitude":{"$numberDouble":"30.384453"},"longitude":{"$numberDouble":"-97.709809"},"location":{"type":"Point","coordinates":[{"$numberDouble":"-97.709809"},{"$numberDouble":"30.384453"}]}}}
{"_id":{"$oid":"52cdef7c4bab8bd6752982c9"},"name":"Escapia","founded_year":{"$numberInt":"2000"},"deadpooled_year":null,"description":"Online Vacation Rental Software","total_money_raised":"$3.6M","offices":{"description":"","address1":"1011 W 5th Street #300","address2":"","zip_code":"78703","city":"Austin","state_code":"TX","country_code":"USA","latitude":null,"longitude":null}}
{"_id":{"$oid":"52cdef7c4bab8bd6752982f7"},"name":"CyberRentals","founded_year":null,"deadpooled_year":null,"description":null,"total_money_raised":"$0","offices":{"description":"","address1":"3801 S. Capital of Texas Highway #150","address2":"","zip_code":"78704","city":"Austin","state_code":"TX","country_code":"USA","latitude":{"$numberDouble":"30.242865"},"longitude":{"$numberDouble":"-97.798398"},"location":{"type":"Point","coordinates":[{"$numberDouble":"-97.798398"},{"$numberDouble":"30.242865"}]}}}
{"_id":{"$oid":"52cdef7c4bab8bd6752982f9"},"name":"TripHomes","founded_year":null,"deadpooled_year":null,"description":null,"total_money_raised":"$0","offices":{"description":"","address1":"3801 S. Capital of Texas Highway","address2":"Suite 150","zip_code":"78704","city":"Austin","state_code":"TX","country_code":"USA","latitude":{"$numberDouble":"30.242865"},"longitude":{"$numberDouble":"-97.798398"},"location":{"type":"Point","coordinates":[{"$numberDouble":"-97.798398"},{"$numberDouble":"30.242865"}]}}}
{"_id":{"$oid":"52cdef7c4bab8bd67529830e"},"name":"Voyant","founded_year":{"$numberInt":"2006"},"deadpooled_year":null,"description":null,"total_money_raised":"$0","offices":{"description":null,"address1":"4807 Spicewood Springs Road","address2":"Building 2, Suite 410","zip_code":"78759","city":"Austin","state_code":"TX","country_code":"USA","latitude":{"$numberDouble":"30.379593"},"longitude":{"$numberDouble":"-97.765313"},"location":{"type":"Point","coordinates":[{"$numberDouble":"-97.765313"},{"$numberDouble":"30.379593"}]}}}
{"_id":{"$oid":"52cdef7c4bab8bd6752982f6"},"name":"HomeAway","founded_year":{"$numberInt":"2005"},"deadpooled_year":null,"description":"Online vacation rental marketplace","total_money_raised":"$504M","offices":{"description":"","address1":"1011 W. Fifth Street","address2":"Suite 300","zip_code":"78703","city":"Austin","state_code":"TX","country_code":"USA","latitude":null,"longitude":null}}
{"_id":{"$oid":"52cdef7c4bab8bd675298342"},"name":"Compulsivo","founded_year":{"$numberInt":"2007"},"deadpooled_year":null,"description":null,"total_money_raised":"$0","offices":{"description":null,"address1":"603 W 13TH ST STE 1A","address2":"","zip_code":"78701","city":"Austin","state_code":"TX","country_code":"USA","latitude":{"$numberDouble":"30.27646"},"longitude":{"$numberDouble":"-97.746387"},"location":{"type":"Point","coordinates":[{"$numberDouble":"-97.746387"},{"$numberDouble":"30.27646"}]}}}
{"_id":{"$oid":"52cdef7c4bab8bd675298333"},"name":"QuickInsert","founded_year":{"$numberInt":"2007"},"deadpooled_year":null,"description":null,"total_money_raised":"$0","offices":{"description":null,"address1":"M242 Jester","address2":"201 East 21st Street","zip_code":"78705","city":"Austin","state_code":"TX","country_code":"USA","latitude":{"$numberDouble":"30.281531"},"longitude":{"$numberDouble":"-97.735719"},"location":{"type":"Point","coordinates":[{"$numberDouble":"-97.735719"},{"$numberDouble":"30.281531"}]}}}
{"_id":{"$oid":"52cdef7c4bab8bd675298375"},"name":"FameCast","founded_year":{"$numberInt":"2007"},"deadpooled_year":{"$numberInt":"2010"},"description":"online talent competition","total_money_raised":"$9.7M","offices":{"description":"HQ","address1":"3000 East Cesar Chavez","address2":"","zip_code":"78702","city":"Austin","state_code":"TX","country_code":"USA","latitude":{"$numberDouble":"30.268735"},"longitude":{"$numberDouble":"-97.745209"},"location":{"type":"Point","coordinates":[{"$numberDouble":"-97.745209"},{"$numberDouble":"30.268735"}]}}}
{"_id":{"$oid":"52cdef7c4bab8bd6752983b0"},"name":"Stratfor","founded_year":null,"deadpooled_year":null,"description":"online publisher","total_money_raised":"$0","offices":{"description":"HQ","address1":"700 Lavaca Street","address2":"Suite 900","zip_code":"78701","city":"Austin","state_code":"TX","country_code":"USA","latitude":null,"longitude":null}}
{"_id":{"$oid":"52cdef7c4bab8bd6752983ba"},"name":"MessageOne","founded_year":null,"deadpooled_year":null,"description":null,"total_money_raised":"$10M","offices":{"description":"","address1":"11044 Research Blvd","address2":"Building C, Fifth Floor","zip_code":"78759","city":"Austin","state_code":"TX","country_code":"USA","latitude":{"$numberDouble":"30.405197"},"longitude":{"$numberDouble":"-97.745673"},"location":{"type":"Point","coordinates":[{"$numberDouble":"-97.745673"},{"$numberDouble":"30.405197"}]}}}
{"_id":{"$oid":"52cdef7c4bab8bd6752983e5"},"name":"Trilogy","founded_year":{"$numberInt":"1989"},"deadpooled_year":null,"description":"business services","total_money_raised":"$0","offices":{"description":"HQ","address1":"401 Congress Avenue","address2":"","zip_code":"78701","city":"Austin","state_code":"TX","country_code":"USA","latitude":{"$numberDouble":"30.26652"},"longitude":{"$numberDouble":"-97.7429367"},"location":{"type":"Point","coordinates":[{"$numberDouble":"-97.7429367"},{"$numberDouble":"30.26652"}]}}}
{"_id":{"$oid":"52cdef7c4bab8bd675298682"},"name":"Say2GO","founded_year":{"$numberInt":"2008"},"deadpooled_year":null,"description":"Voicemail Management","total_money_raised":"$0","offices":{"description":"","address1":"Suite E240-50","address2":"3801 N. Capital of Texas Highway","zip_code":"78746","city":"Austin","state_code":"TX","country_code":"USA","latitude":{"$numberDouble":"30.261295"},"longitude":{"$numberDouble":"-97.79272"},"location":{"type":"Point","coordinates":[{"$numberDouble":"-97.79272"},{"$numberDouble":"30.261295"}]}}}
{"_id":{"$oid":"52cdef7c4bab8bd675298690"},"name":"itzbig","founded_year":{"$numberInt":"2006"},"deadpooled_year":{"$numberInt":"2010"},"description":"","total_money_raised":"$4M","offices":{"description":null,"address1":"8911 Capital of Texas Highway North","address2":"Suite 3 -100","zip_code":"78759","city":"Austin","state_code":"TX","country_code":"USA","latitude":{"$numberDouble":"30.387275"},"longitude":{"$numberDouble":"-97.759511"},"location":{"type":"Point","coordinates":[{"$numberDouble":"-97.759511"},{"$numberDouble":"30.387275"}]}}}
{"_id":{"$oid":"52cdef7c4bab8bd6752986c1"},"name":"Adlucent","founded_year":{"$numberInt":"2005"},"deadpooled_year":null,"description":"","total_money_raised":"$0","offices":{"description":"","address1":"2130 S. Congress Ave","address2":"","zip_code":"78704","city":"Austin","state_code":"TX","country_code":"USA","latitude":{"$numberDouble":"30.316226"},"longitude":{"$numberDouble":"-97.71813"},"location":{"type":"Point","coordinates":[{"$numberDouble":"-97.71813"},{"$numberDouble":"30.316226"}]}}}
{"_id":{"$oid":"52cdef7c4bab8bd67529873f"},"name":"Absolute Software","founded_year":{"$numberInt":"1993"},"deadpooled_year":null,"description":null,"total_money_raised":"$0","offices":{"description":"U.S. Headquarters","address1":"2nd Floor","address2":"7000 North MoPac Expressway","zip_code":"78731","city":"Austin","state_code":"TX","country_code":"USA","latitude":{"$numberDouble":"30.265006"},"longitude":{"$numberDouble":"-97.746608"},"location":{"type":"Point","coordinates":[{"$numberDouble":"-97.746608"},{"$numberDouble":"30.265006"}]}}}
{"_id":{"$oid":"52cdef7c4bab8bd67529876f"},"name":"Volusion","founded_year":{"$numberInt":"1999"},"deadpooled_year":null,"description":"","total_money_raised":"$0","offices":{"description":"","address1":"8911 Capital of Texas Hwy","address2":"Suite 1200","zip_code":"78759","city":"Austin","state_code":"TX","country_code":"USA","latitude":null,"longitude":null}}
{"_id":{"$oid":"52cdef7d4bab8bd675298912"},"name":"Razorfish","founded_year":{"$numberInt":"1995"},"deadpooled_year":null,"description":"marketing agency","total_money_raised":"$0","offices":{"description":"Austin","address1":"300 West 6th Street","address2":"Suite 1200","zip_code":"78701","city":"Austin","state_code":"TX","country_code":"USA","latitude":{"$numberDouble":"30.2690262"},"longitude":{"$numberDouble":"-97.7456714"},"location":{"type":"Point","coordinates":[{"$numberDouble":"-97.7456714"},{"$numberDouble":"30.2690262"}]}}}
{"_id":{"$oid":"52cdef7d4bab8bd675298930"},"name":"Hoovers","founded_year":{"$numberInt":"1990"},"deadpooled_year":null,"description":"","total_money_raised":"$0","offices":{"description":"HQ","address1":"5800 Airport Blvd.","address2":"","zip_code":"78752","city":"Austin","state_code":"TX","country_code":"USA","latitude":null,"longitude":null}}
{"_id":{"$oid":"52cdef7d4bab8bd67529898f"},"name":"eVapt","founded_year":{"$numberInt":"2006"},"deadpooled_year":null,"description":null,"total_money_raised":"$0","offices":{"description":null,"address1":"3925 W Braker Lane","address2":"","zip_code":"78759","city":"Austin","state_code":"TX","country_code":"USA","latitude":{"$numberDouble":"30.396989"},"longitude":{"$numberDouble":"-97.735768"},"location":{"type":"Point","coordinates":[{"$numberDouble":"-97.735768"},{"$numberDouble":"30.396989"}]}}}
{"_id":{"$oid":"52cdef7d4bab8bd6752989f0"},"name":"Vignette","founded_year":{"$numberInt":"1995"},"deadpooled_year":null,"description":"Enterprise Content Management ","total_money_raised":"$0","offices":{"description":"HQ","address1":"1301 South MoPac Expressway","address2":"Suite 100","zip_code":"78746","city":"Austin","state_code":"TX","country_code":"USA","latitude":{"$numberDouble":"30.262269"},"longitude":{"$numberDouble":"-97.788329"},"location":{"type":"Point","coordinates":[{"$numberDouble":"-97.788329"},{"$numberDouble":"30.262269"}]}}}
{"_id":{"$oid":"52cdef7d4bab8bd675298a23"},"name":"Aradiom","founded_year":null,"deadpooled_year":null,"description":null,"total_money_raised":"$0","offices":{"description":"","address1":"Aradiom, 3605 Steck Avenue","address2":"Suite #1063","zip_code":"78759","city":"Austin","state_code":"WI","country_code":"USA","latitude":null,"longitude":null}}
{"_id":{"$oid":"52cdef7d4bab8bd675298a30"},"name":"FIRST ROI","founded_year":{"$numberInt":"2006"},"deadpooled_year":null,"description":"emarketing for banks & credit unions","total_money_raised":"$0","offices":{"description":"","address1":"5300 Riata Park Court","address2":"Building #7","zip_code":"78727","city":"Austin","state_code":"TX","country_code":"USA","latitude":{"$numberDouble":"30.432421"},"longitude":{"$numberDouble":"-97.732059"},"location":{"type":"Point","coordinates":[{"$numberDouble":"-97.732059"},{"$numberDouble":"30.432421"}]}}}
{"_id":{"$oid":"52cdef7d4bab8bd675298b76"},"name":"CoverItLive","founded_year":{"$numberInt":"2007"},"deadpooled_year":null,"description":"Liveblogging tool","total_money_raised":"$1M","offices":{"description":"Corporate Headquarters","address1":"200 Academy","address2":"Suite 100","zip_code":"78704","city":"Austin","state_code":"TX","country_code":"USA","latitude":{"$numberDouble":"43.6378576"},"longitude":{"$numberDouble":"-79.4255306"},"location":{"type":"Point","coordinates":[{"$numberDouble":"-79.4255306"},{"$numberDouble":"43.6378576"}]}}}
{"_id":{"$oid":"52cdef7d4bab8bd675298bba"},"name":"OtherInbox","founded_year":{"$numberInt":"2008"},"deadpooled_year":null,"description":"Email Services","total_money_raised":"$3.8M","offices":{"description":"HQ","address1":"701 Brazos St","address2":"Ste 1600","zip_code":"78701","city":"Austin","state_code":"TX","country_code":"USA","latitude":{"$numberDouble":"30.269004"},"longitude":{"$numberDouble":"-97.740395"},"location":{"type":"Point","coordinates":[{"$numberDouble":"-97.740395"},{"$numberDouble":"30.269004"}]}}}
{"_id":{"$oid":"52cdef7d4bab8bd675298c5a"},"name":"Ucareer","founded_year":{"$numberInt":"2008"},"deadpooled_year":null,"description":"Career Website","total_money_raised":"$0","offices":{"description":null,"address1":"1617 w 6th ST","address2":"","zip_code":"78703","city":"Austin","state_code":"TX","country_code":"USA","latitude":{"$numberDouble":"30.275261"},"longitude":{"$numberDouble":"-97.763987"},"location":{"type":"Point","coordinates":[{"$numberDouble":"-97.763987"},{"$numberDouble":"30.275261"}]}}}
{"_id":{"$oid":"52cdef7d4bab8bd675298c82"},"name":"Thinkwell","founded_year":{"$numberInt":"1999"},"deadpooled_year":null,"description":null,"total_money_raised":"$0","offices":{"description":null,"address1":"1021 E. 7th St.","address2":"Suite 100","zip_code":"78702","city":"Austin","state_code":"TX","country_code":"USA","latitude":{"$numberDouble":"30.265557"},"longitude":{"$numberDouble":"-97.73151"},"location":{"type":"Point","coordinates":[{"$numberDouble":"-97.73151"},{"$numberDouble":"30.265557"}]}}}
{"_id":{"$oid":"52cdef7d4bab8bd675298cdc"},"name":"Cosential","founded_year":{"$numberInt":"1997"},"deadpooled_year":null,"description":"","total_money_raised":"$250k","offices":{"description":"","address1":"207 San Jacinto Blvd","address2":"","zip_code":"78701","city":"Austin","state_code":"TX","country_code":"USA","latitude":{"$numberDouble":"30.264254"},"longitude":{"$numberDouble":"-97.74129"},"location":{"type":"Point","coordinates":[{"$numberDouble":"-97.74129"},{"$numberDouble":"30.264254"}]}}}
{"_id":{"$oid":"52cdef7d4bab8bd675298ce4"},"name":"Aspyr Media","founded_year":{"$numberInt":"1996"},"deadpooled_year":null,"description":"#1 Mac Game Publisher","total_money_raised":"$0","offices":{"description":"","address1":"P.O. BOX 5861","address2":"","zip_code":"78763","city":"Austin","state_code":"TX","country_code":"USA","latitude":{"$numberDouble":"30.2667"},"longitude":{"$numberDouble":"-97.7428"},"location":{"type":"Point","coordinates":[{"$numberDouble":"-97.7428"},{"$numberDouble":"30.2667"}]}}}
{"_id":{"$oid":"52cdef7d4bab8bd675298d55"},"name":"K9Poker","founded_year":{"$numberInt":"2004"},"deadpooled_year":null,"description":null,"total_money_raised":"$0","offices":{"description":null,"address1":"PO Box 160550","address2":"","zip_code":"78716","city":"Austin","state_code":"TX","country_code":"USA","latitude":{"$numberDouble":"30.2669"},"longitude":{"$numberDouble":"-97.7428"},"location":{"type":"Point","coordinates":[{"$numberDouble":"-97.7428"},{"$numberDouble":"30.2669"}]}}}
{"_id":{"$oid":"52cdef7d4bab8bd675298d74"},"name":"ActiveHire","founded_year":{"$numberInt":"1999"},"deadpooled_year":null,"description":null,"total_money_raised":"$0","offices":{"description":null,"address1":"1705 S. Loop 360","address2":"","zip_code":"78746","city":"Austin","state_code":"TX","country_code":"USA","latitude":{"$numberDouble":"30.286622"},"longitude":{"$numberDouble":"-97.826179"},"location":{"type":"Point","coordinates":[{"$numberDouble":"-97.826179"},{"$numberDouble":"30.286622"}]}}}
{"_id":{"$oid":"52cdef7d4bab8bd675298d94"},"name":"Harte-Hanks","founded_year":null,"deadpooled_year":null,"description":null,"total_money_raised":"$0","offices":{"description":"","address1":"117 Kendrick Street","address2":"","zip_code":"78728","city":"Austin","state_code":"TX","country_code":"USA","latitude":{"$numberDouble":"30.038272"},"longitude":{"$numberDouble":"-96.200347"},"location":{"type":"Point","coordinates":[{"$numberDouble":"-96.200347"},{"$numberDouble":"30.038272"}]}}}
{"_id":{"$oid":"52cdef7d4bab8bd675298db0"},"name":"Zenoss","founded_year":{"$numberInt":"2005"},"deadpooled_year":null,"description":"Systems Management Software","total_money_raised":"$45.6M","offices":{"description":"Development & Marketing","address1":"4807 Spicewood Springs Rd","address2":"Building 4, Suite 201","zip_code":"78759","city":"Austin","state_code":"TX","country_code":"USA","latitude":{"$numberDouble":"30.379593"},"longitude":{"$numberDouble":"-97.765313"},"location":{"type":"Point","coordinates":[{"$numberDouble":"-97.765313"},{"$numberDouble":"30.379593"}]}}}
{"_id":{"$oid":"52cdef7d4bab8bd675298dc5"},"name":"Pervasive Software","founded_year":null,"deadpooled_year":null,"description":"","total_money_raised":"$0","offices":{"description":"HQ","address1":"12365-B Riata Trace Parkway","address2":"","zip_code":"78727","city":"Austin","state_code":"TX","country_code":"USA","latitude":{"$numberDouble":"30.428372"},"longitude":{"$numberDouble":"-97.741937"},"location":{"type":"Point","coordinates":[{"$numberDouble":"-97.741937"},{"$numberDouble":"30.428372"}]}}}
{"_id":{"$oid":"52cdef7d4bab8bd675298df0"},"name":"NetSpend","founded_year":{"$numberInt":"1999"},"deadpooled_year":null,"description":null,"total_money_raised":"$5.33M","offices":{"description":"HQ","address1":"PO Box 2136","address2":"","zip_code":"78768-2136","city":"Austin","state_code":"TX","country_code":"USA","latitude":{"$numberDouble":"30.2667"},"longitude":{"$numberDouble":"-97.7428"},"location":{"type":"Point","coordinates":[{"$numberDouble":"-97.7428"},{"$numberDouble":"30.2667"}]}}}
{"_id":{"$oid":"52cdef7d4bab8bd675298e14"},"name":"Unicast","founded_year":{"$numberInt":"1998"},"deadpooled_year":null,"description":"","total_money_raised":"$0","offices":{"description":"Texas Office","address1":"720 Brazos St # 800","address2":"","zip_code":"","city":"Austin","state_code":"TX","country_code":"USA","latitude":{"$numberDouble":"30.26924"},"longitude":{"$numberDouble":"-97.741157"},"location":{"type":"Point","coordinates":[{"$numberDouble":"-97.741157"},{"$numberDouble":"30.26924"}]}}}
{"_id":{"$oid":"52cdef7d4bab8bd675298f03"},"name":"Alereon","founded_year":{"$numberInt":"2003"},"deadpooled_year":null,"description":"Fabless Semiconductor Company","total_money_raised":"$73M","offices":{"description":"Headquarters","address1":"7600 N. Capital of Texas Highway","address2":"Bldg. C, #200","zip_code":"78731","city":"Austin","state_code":"TX","country_code":"USA","latitude":{"$numberDouble":"30.375563"},"longitude":{"$numberDouble":"-97.78192"},"location":{"type":"Point","coordinates":[{"$numberDouble":"-97.78192"},{"$numberDouble":"30.375563"}]}}}
{"_id":{"$oid":"52cdef7d4bab8bd675298f81"},"name":"Manticore Technology","founded_year":{"$numberInt":"2001"},"deadpooled_year":null,"description":"","total_money_raised":"$0","offices":{"description":"Headquarters","address1":"9111 Jollyville Rd","address2":"Suite 260","zip_code":"78759","city":"Austin","state_code":"TX","country_code":"USA","latitude":{"$numberDouble":"30.382168"},"longitude":{"$numberDouble":"-97.743141"},"location":{"type":"Point","coordinates":[{"$numberDouble":"-97.743141"},{"$numberDouble":"30.382168"}]}}}
{"_id":{"$oid":"52cdef7d4bab8bd675298f95"},"name":"Uprizer Labs","founded_year":{"$numberInt":"2008"},"deadpooled_year":null,"description":"P2P and Artifical Intelligence Software","total_money_raised":"$0","offices":{"description":"Main office","address1":"3814 Brookview Road","address2":"","zip_code":"78722","city":"Austin","state_code":"TX","country_code":"USA","latitude":{"$numberDouble":"30.291391"},"longitude":{"$numberDouble":"-97.710481"},"location":{"type":"Point","coordinates":[{"$numberDouble":"-97.710481"},{"$numberDouble":"30.291391"}]}}}
{"_id":{"$oid":"52cdef7d4bab8bd675298fa5"},"name":"Troux Technologies","founded_year":{"$numberInt":"2001"},"deadpooled_year":null,"description":"IT planning and control software","total_money_raised":"$33.9M","offices":{"description":"Headquarters","address1":"8601 FM 2222","address2":"Building 3 Suite 300","zip_code":"78730","city":"Austin","state_code":"TX","country_code":"USA","latitude":{"$numberDouble":"30.381525"},"longitude":{"$numberDouble":"-97.810484"},"location":{"type":"Point","coordinates":[{"$numberDouble":"-97.810484"},{"$numberDouble":"30.381525"}]}}}
{"_id":{"$oid":"52cdef7d4bab8bd675299021"},"name":"Babble Soft","founded_year":{"$numberInt":"2007"},"deadpooled_year":null,"description":null,"total_money_raised":"$0","offices":{"description":"World Headquarters","address1":"PO Box 500134","address2":"","zip_code":"78750","city":"Austin","state_code":"TX","country_code":"USA","latitude":{"$numberDouble":"30.414146"},"longitude":{"$numberDouble":"-97.807032"},"location":{"type":"Point","coordinates":[{"$numberDouble":"-97.807032"},{"$numberDouble":"30.414146"}]}}}
{"_id":{"$oid":"52cdef7d4bab8bd67529902d"},"name":"Affinegy","founded_year":{"$numberInt":"2003"},"deadpooled_year":null,"description":"","total_money_raised":"$550k","offices":{"description":"Headquarters","address1":"1705 S. Capital of Texas Hwy","address2":"Ste. 310","zip_code":"78746","city":"Austin","state_code":"TX","country_code":"USA","latitude":{"$numberDouble":"30.271891"},"longitude":{"$numberDouble":"-97.816472"},"location":{"type":"Point","coordinates":[{"$numberDouble":"-97.816472"},{"$numberDouble":"30.271891"}]}}}
{"_id":{"$oid":"52cdef7d4bab8bd675299076"},"name":"National Transcript Center","founded_year":{"$numberInt":"2006"},"deadpooled_year":null,"description":null,"total_money_raised":"$0","offices":{"description":"Main Office","address1":"8627 N. Mopac","address2":"Suite 400","zip_code":"78759","city":"Austin","state_code":"TX","country_code":"USA","latitude":{"$numberDouble":"30.181709"},"longitude":{"$numberDouble":"-97.880286"},"location":{"type":"Point","coordinates":[{"$numberDouble":"-97.880286"},{"$numberDouble":"30.181709"}]}}}
{"_id":{"$oid":"52cdef7d4bab8bd675299082"},"name":"Bones in Motion","founded_year":null,"deadpooled_year":null,"description":null,"total_money_raised":"$0","offices":{"description":"Corporate Headquarters","address1":"108 Wild Basin Road","address2":"Suite 231","zip_code":"78746","city":"Austin","state_code":"TX","country_code":"USA","latitude":{"$numberDouble":"30.306591"},"longitude":{"$numberDouble":"-97.826727"},"location":{"type":"Point","coordinates":[{"$numberDouble":"-97.826727"},{"$numberDouble":"30.306591"}]}}}
{"_id":{"$oid":"52cdef7d4bab8bd6752990ab"},"name":"RezOvation","founded_year":{"$numberInt":"1996"},"deadpooled_year":null,"description":null,"total_money_raised":"$0","offices":{"description":"Headquarters","address1":"700 Brazos Street","address2":"Suite B700","zip_code":"78701","city":"Austin","state_code":"TX","country_code":"USA","latitude":{"$numberDouble":"30.268852"},"longitude":{"$numberDouble":"-97.74122"},"location":{"type":"Point","coordinates":[{"$numberDouble":"-97.74122"},{"$numberDouble":"30.268852"}]}}}
{"_id":{"$oid":"52cdef7d4bab8bd67529912e"},"name":"AMD","founded_year":{"$numberInt":"1969"},"deadpooled_year":null,"description":null,"total_money_raised":"$0","offices":{"description":"AMD Austin, Lone Star","address1":"Advanced Micro Devices","address2":"7171 Southwest Pkwy","zip_code":"78735","city":"Austin","state_code":"TX","country_code":"USA","latitude":null,"longitude":null}}
{"_id":{"$oid":"52cdef7d4bab8bd67529921f"},"name":"Infoglide Software Corporation","founded_year":{"$numberInt":"1996"},"deadpooled_year":null,"description":"Identity resolution software","total_money_raised":"$0","offices":{"description":"Headquarters","address1":"6500 River Place Blvd","address2":"Building 2, Suite 450","zip_code":"78730","city":"Austin","state_code":"TX","country_code":"USA","latitude":{"$numberDouble":"30.392018"},"longitude":{"$numberDouble":"-97.848345"},"location":{"type":"Point","coordinates":[{"$numberDouble":"-97.848345"},{"$numberDouble":"30.392018"}]}}}
{"_id":{"$oid":"52cdef7d4bab8bd675299232"},"name":"Innography","founded_year":{"$numberInt":"2006"},"deadpooled_year":null,"description":"Intellectual Property Business Intel","total_money_raised":"$10.5M","offices":{"description":"Headquarters","address1":"1221 South Mopac Expressway","address2":"Suite 320","zip_code":"78746","city":"Austin","state_code":"TX","country_code":"USA","latitude":null,"longitude":null}}
{"_id":{"$oid":"52cdef7d4bab8bd675299241"},"name":"ArtistForce","founded_year":{"$numberInt":"2006"},"deadpooled_year":{"$numberInt":"2013"},"description":"","total_money_raised":"$0","offices":{"description":"Austin Office","address1":"100 Congress Avenue","address2":"","zip_code":"78701","city":"Austin","state_code":"TX","country_code":"USA","latitude":{"$numberDouble":"30.264043"},"longitude":{"$numberDouble":"-97.744762"},"location":{"type":"Point","coordinates":[{"$numberDouble":"-97.744762"},{"$numberDouble":"30.264043"}]}}}
{"_id":{"$oid":"52cdef7d4bab8bd675299226"},"name":"Borland","founded_year":null,"deadpooled_year":null,"description":"Software Company","total_money_raised":"$0","offices":{"description":"Corporate Headquarters","address1":"8303 N. Mopac Expressway","address2":"Suite A-300","zip_code":"78759-8374","city":"Austin","state_code":"TX","country_code":"USA","latitude":{"$numberDouble":"30.395732"},"longitude":{"$numberDouble":"-97.732599"},"location":{"type":"Point","coordinates":[{"$numberDouble":"-97.732599"},{"$numberDouble":"30.395732"}]}}}
{"_id":{"$oid":"52cdef7d4bab8bd675299390"},"name":"Advisor Marketing ServicesGroup","founded_year":{"$numberInt":"2006"},"deadpooled_year":null,"description":null,"total_money_raised":"$0","offices":{"description":"Austin Office","address1":"13740 Reasearch Blvd","address2":"","zip_code":"7738","city":"Austin","state_code":"TX","country_code":"USA","latitude":{"$numberDouble":"30.458697"},"longitude":{"$numberDouble":"-97.793606"},"location":{"type":"Point","coordinates":[{"$numberDouble":"-97.793606"},{"$numberDouble":"30.458697"}]}}}
{"_id":{"$oid":"52cdef7d4bab8bd67529946b"},"name":"Greenling","founded_year":null,"deadpooled_year":null,"description":null,"total_money_raised":"$10.4M","offices":{"description":"GreenlingHQ","address1":"3913 Todd Ln #618","address2":"","zip_code":"78744","city":"Austin","state_code":"TX","country_code":"USA","latitude":null,"longitude":null}}
{"_id":{"$oid":"52cdef7d4bab8bd6752994ff"},"name":"NetQoS","founded_year":{"$numberInt":"1999"},"deadpooled_year":null,"description":"network performance management","total_money_raised":"$0","offices":{"description":"Corporate Headquarters","address1":"5001 Plaza on the Lake","address2":"","zip_code":"78746","city":"Austin","state_code":"TX","country_code":"USA","latitude":{"$numberDouble":"30.34819"},"longitude":{"$numberDouble":"-97.80058"},"location":{"type":"Point","coordinates":[{"$numberDouble":"-97.80058"},{"$numberDouble":"30.34819"}]}}}
{"_id":{"$oid":"52cdef7d4bab8bd67529950c"},"name":"Cycorp","founded_year":{"$numberInt":"1994"},"deadpooled_year":null,"description":null,"total_money_raised":"$0","offices":{"description":"Headquarters","address1":"7718 Wood Hollow Drive","address2":"","zip_code":"78731","city":"Austin","state_code":"TX","country_code":"USA","latitude":{"$numberDouble":"30.361216"},"longitude":{"$numberDouble":"-97.747637"},"location":{"type":"Point","coordinates":[{"$numberDouble":"-97.747637"},{"$numberDouble":"30.361216"}]}}}
{"_id":{"$oid":"52cdef7d4bab8bd675299534"},"name":"Hyper9","founded_year":{"$numberInt":"2006"},"deadpooled_year":null,"description":"Virtual Infrastructure Management","total_money_raised":"$15.2M","offices":{"description":"Headquarters","address1":"9015 Mountain Ridge Dr.","address2":"Suite 140","zip_code":"78759","city":"Austin","state_code":"TX","country_code":"USA","latitude":{"$numberDouble":"30.387353"},"longitude":{"$numberDouble":"-97.753163"},"location":{"type":"Point","coordinates":[{"$numberDouble":"-97.753163"},{"$numberDouble":"30.387353"}]}}}
{"_id":{"$oid":"52cdef7d4bab8bd675299537"},"name":"Interspire","founded_year":{"$numberInt":"2003"},"deadpooled_year":null,"description":"Ecommerce and email marketing software","total_money_raised":"$0","offices":{"description":"Austin, Texas","address1":"96069 North MoPac","address2":"","zip_code":"","city":"Austin","state_code":"TX","country_code":"USA","latitude":{"$numberDouble":"30.303746"},"longitude":{"$numberDouble":"-97.758639"},"location":{"type":"Point","coordinates":[{"$numberDouble":"-97.758639"},{"$numberDouble":"30.303746"}]}}}
{"_id":{"$oid":"52cdef7d4bab8bd67529971a"},"name":"SpeakerMatch","founded_year":{"$numberInt":"2002"},"deadpooled_year":null,"description":null,"total_money_raised":"$0","offices":{"description":"","address1":"4807 Spicewood Springs Road","address2":"Building 2, Suite 118","zip_code":"78759","city":"Austin","state_code":"TX","country_code":"USA","latitude":{"$numberDouble":"30.379593"},"longitude":{"$numberDouble":"-97.765313"},"location":{"type":"Point","coordinates":[{"$numberDouble":"-97.765313"},{"$numberDouble":"30.379593"}]}}}
{"_id":{"$oid":"52cdef7d4bab8bd67529973c"},"name":"TRUECar","founded_year":{"$numberInt":"2005"},"deadpooled_year":null,"description":"Car Buying Marketplace","total_money_raised":"$352M","offices":{"description":"Austin Office","address1":"13412 Galleria Circle","address2":"Building H","zip_code":"78738","city":"Austin","state_code":"TX","country_code":"USA","latitude":{"$numberDouble":"30.3096936"},"longitude":{"$numberDouble":"-97.9390133"},"location":{"type":"Point","coordinates":[{"$numberDouble":"-97.9390133"},{"$numberDouble":"30.3096936"}]}}}
{"_id":{"$oid":"52cdef7d4bab8bd675299786"},"name":"SailPoint Technologies","founded_year":{"$numberInt":"2005"},"deadpooled_year":null,"description":"identity governance software","total_money_raised":"$25.8M","offices":{"description":"HQ","address1":"6034 W. Courtyard Drive","address2":"Suite 309","zip_code":"78730","city":"Austin","state_code":"TX","country_code":"USA","latitude":{"$numberDouble":"30.355703"},"longitude":{"$numberDouble":"-97.797117"},"location":{"type":"Point","coordinates":[{"$numberDouble":"-97.797117"},{"$numberDouble":"30.355703"}]}}}
{"_id":{"$oid":"52cdef7d4bab8bd6752997ef"},"name":"Nomadesk","founded_year":{"$numberInt":"2004"},"deadpooled_year":null,"description":"File Sharing, Synchronization and Backup","total_money_raised":"$10.3M","offices":{"description":"HQ","address1":"3000 N Mopac","address2":"Suite 390","zip_code":"78731","city":"Austin","state_code":"TX","country_code":"USA","latitude":{"$numberDouble":"51.001975"},"longitude":{"$numberDouble":"3.61682"},"location":{"type":"Point","coordinates":[{"$numberDouble":"3.61682"},{"$numberDouble":"51.001975"}]}}}
{"_id":{"$oid":"52cdef7d4bab8bd6752997ef"},"name":"Nomadesk","founded_year":{"$numberInt":"2004"},"deadpooled_year":null,"description":"File Sharing, Synchronization and Backup","total_money_raised":"$10.3M","offices":{"description":"US Headquarters","address1":"7000 N Mopac","address2":"Suite 390","zip_code":"78731","city":"Austin","state_code":"TX","country_code":"USA","latitude":null,"longitude":null}}
{"_id":{"$oid":"52cdef7d4bab8bd675299818"},"name":"SnapPages","founded_year":{"$numberInt":"2008"},"deadpooled_year":null,"description":"","total_money_raised":"$0","offices":{"description":"Main Office","address1":"13091 Pond Springs Rd.","address2":"Suite D-350","zip_code":"78729","city":"Austin","state_code":"TX","country_code":"USA","latitude":{"$numberDouble":"30.443493"},"longitude":{"$numberDouble":"-97.77512"},"location":{"type":"Point","coordinates":[{"$numberDouble":"-97.77512"},{"$numberDouble":"30.443493"}]}}}
{"_id":{"$oid":"52cdef7d4bab8bd6752998be"},"name":"Hyper9","founded_year":{"$numberInt":"2006"},"deadpooled_year":null,"description":"Virtual Infrastructure Management","total_money_raised":"$15.2M","offices":{"description":"Headquarters","address1":"9015 Mountain Ridge Dr.","address2":"Suite 140","zip_code":"78759","city":"Austin","state_code":"TX","country_code":"USA","latitude":{"$numberDouble":"30.387353"},"longitude":{"$numberDouble":"-97.753163"},"location":{"type":"Point","coordinates":[{"$numberDouble":"-97.753163"},{"$numberDouble":"30.387353"}]}}}
{"_id":{"$oid":"52cdef7d4bab8bd6752998c1"},"name":"Interspire","founded_year":{"$numberInt":"2003"},"deadpooled_year":null,"description":"Ecommerce and email marketing software","total_money_raised":"$0","offices":{"description":"Austin, Texas","address1":"96069 North MoPac","address2":"","zip_code":"","city":"Austin","state_code":"TX","country_code":"USA","latitude":{"$numberDouble":"30.303746"},"longitude":{"$numberDouble":"-97.758639"},"location":{"type":"Point","coordinates":[{"$numberDouble":"-97.758639"},{"$numberDouble":"30.303746"}]}}}
{"_id":{"$oid":"52cdef7d4bab8bd675299aa4"},"name":"SpeakerMatch","founded_year":{"$numberInt":"2002"},"deadpooled_year":null,"description":null,"total_money_raised":"$0","offices":{"description":"","address1":"4807 Spicewood Springs Road","address2":"Building 2, Suite 118","zip_code":"78759","city":"Austin","state_code":"TX","country_code":"USA","latitude":{"$numberDouble":"30.379593"},"longitude":{"$numberDouble":"-97.765313"},"location":{"type":"Point","coordinates":[{"$numberDouble":"-97.765313"},{"$numberDouble":"30.379593"}]}}}
{"_id":{"$oid":"52cdef7d4bab8bd675299ac6"},"name":"TRUECar","founded_year":{"$numberInt":"2005"},"deadpooled_year":null,"description":"Car Buying Marketplace","total_money_raised":"$352M","offices":{"description":"Austin Office","address1":"13412 Galleria Circle","address2":"Building H","zip_code":"78738","city":"Austin","state_code":"TX","country_code":"USA","latitude":{"$numberDouble":"30.3096936"},"longitude":{"$numberDouble":"-97.9390133"},"location":{"type":"Point","coordinates":[{"$numberDouble":"-97.9390133"},{"$numberDouble":"30.3096936"}]}}}
{"_id":{"$oid":"52cdef7d4bab8bd675299b10"},"name":"SailPoint Technologies","founded_year":{"$numberInt":"2005"},"deadpooled_year":null,"description":"identity governance software","total_money_raised":"$25.8M","offices":{"description":"HQ","address1":"6034 W. Courtyard Drive","address2":"Suite 309","zip_code":"78730","city":"Austin","state_code":"TX","country_code":"USA","latitude":{"$numberDouble":"30.355703"},"longitude":{"$numberDouble":"-97.797117"},"location":{"type":"Point","coordinates":[{"$numberDouble":"-97.797117"},{"$numberDouble":"30.355703"}]}}}
{"_id":{"$oid":"52cdef7d4bab8bd675299b79"},"name":"Nomadesk","founded_year":{"$numberInt":"2004"},"deadpooled_year":null,"description":"File Sharing, Synchronization and Backup","total_money_raised":"$10.3M","offices":{"description":"HQ","address1":"3000 N Mopac","address2":"Suite 390","zip_code":"78731","city":"Austin","state_code":"TX","country_code":"USA","latitude":{"$numberDouble":"51.001975"},"longitude":{"$numberDouble":"3.61682"},"location":{"type":"Point","coordinates":[{"$numberDouble":"3.61682"},{"$numberDouble":"51.001975"}]}}}
{"_id":{"$oid":"52cdef7d4bab8bd675299b79"},"name":"Nomadesk","founded_year":{"$numberInt":"2004"},"deadpooled_year":null,"description":"File Sharing, Synchronization and Backup","total_money_raised":"$10.3M","offices":{"description":"US Headquarters","address1":"7000 N Mopac","address2":"Suite 390","zip_code":"78731","city":"Austin","state_code":"TX","country_code":"USA","latitude":null,"longitude":null}}
{"_id":{"$oid":"52cdef7d4bab8bd675299ba2"},"name":"SnapPages","founded_year":{"$numberInt":"2008"},"deadpooled_year":null,"description":"","total_money_raised":"$0","offices":{"description":"Main Office","address1":"13091 Pond Springs Rd.","address2":"Suite D-350","zip_code":"78729","city":"Austin","state_code":"TX","country_code":"USA","latitude":{"$numberDouble":"30.443493"},"longitude":{"$numberDouble":"-97.77512"},"location":{"type":"Point","coordinates":[{"$numberDouble":"-97.77512"},{"$numberDouble":"30.443493"}]}}}
{"_id":{"$oid":"52cdef7d4bab8bd675299c5f"},"name":"Conifer Systems","founded_year":{"$numberInt":"2008"},"deadpooled_year":null,"description":"Software Management Tools","total_money_raised":"$0","offices":{"description":"","address1":"P.O. Box 203864","address2":"","zip_code":"78720-3864","city":"Austin","state_code":"TX","country_code":"USA","latitude":{"$numberDouble":"30.2669"},"longitude":{"$numberDouble":"-97.7428"},"location":{"type":"Point","coordinates":[{"$numberDouble":"-97.7428"},{"$numberDouble":"30.2669"}]}}}
{"_id":{"$oid":"52cdef7d4bab8bd675299d2c"},"name":"OneSource Information Services","founded_year":{"$numberInt":"1993"},"deadpooled_year":null,"description":"Business & Executive Research","total_money_raised":"$0","offices":{"description":"Texas","address1":"8303 N. Mopac Suite C-146","address2":"","zip_code":"78746","city":"Austin","state_code":"TX","country_code":"USA","latitude":{"$numberDouble":"30.261122"},"longitude":{"$numberDouble":"-97.793038"},"location":{"type":"Point","coordinates":[{"$numberDouble":"-97.793038"},{"$numberDouble":"30.261122"}]}}}
{"_id":{"$oid":"52cdef7d4bab8bd675299d57"},"name":"zSoup","founded_year":{"$numberInt":"2007"},"deadpooled_year":null,"description":null,"total_money_raised":"$90k","offices":{"description":"Austin Office","address1":"9801 Parmer Ln","address2":"Suite 434","zip_code":"78717","city":"Austin","state_code":"TX","country_code":"USA","latitude":{"$numberDouble":"30.485345"},"longitude":{"$numberDouble":"-97.771565"},"location":{"type":"Point","coordinates":[{"$numberDouble":"-97.771565"},{"$numberDouble":"30.485345"}]}}}
{"_id":{"$oid":"52cdef7d4bab8bd675299d61"},"name":"Apogee Search","founded_year":{"$numberInt":"2001"},"deadpooled_year":null,"description":null,"total_money_raised":"$0","offices":{"description":"","address1":"4412 Spicewood Springs Road","address2":"Building 600","zip_code":"78759","city":"Austin","state_code":"TX","country_code":"USA","latitude":{"$numberDouble":"30.373295"},"longitude":{"$numberDouble":"-97.758141"},"location":{"type":"Point","coordinates":[{"$numberDouble":"-97.758141"},{"$numberDouble":"30.373295"}]}}}
{"_id":{"$oid":"52cdef7d4bab8bd675299d65"},"name":"Vigil Games","founded_year":null,"deadpooled_year":null,"description":null,"total_money_raised":"$0","offices":{"description":"Austin Studio","address1":"6011 W Courtyard Dr","address2":"Ste 300","zip_code":"78730","city":"Austin","state_code":"TX","country_code":"USA","latitude":{"$numberDouble":"30.35412"},"longitude":{"$numberDouble":"-97.797933"},"location":{"type":"Point","coordinates":[{"$numberDouble":"-97.797933"},{"$numberDouble":"30.35412"}]}}}
{"_id":{"$oid":"52cdef7d4bab8bd675299d62"},"name":"KingsIsle Entertainment","founded_year":{"$numberInt":"2005"},"deadpooled_year":null,"description":"Multiplayer Online Entertainment","total_money_raised":"$0","offices":{"description":"Austin Office","address1":"P.O. Box 82543","address2":"","zip_code":"78708","city":"Austin","state_code":"TX","country_code":"USA","latitude":{"$numberDouble":"30.354022"},"longitude":{"$numberDouble":"-97.796743"},"location":{"type":"Point","coordinates":[{"$numberDouble":"-97.796743"},{"$numberDouble":"30.354022"}]}}}
{"_id":{"$oid":"52cdef7d4bab8bd675299d68"},"name":"Heatwave Interactive","founded_year":{"$numberInt":"2008"},"deadpooled_year":null,"description":"","total_money_raised":"$12.6M","offices":{"description":"Headquarters","address1":"Tower of the Hills","address2":"13809 Research Blvd.","zip_code":"78750","city":"Austin","state_code":"TX","country_code":"USA","latitude":{"$numberDouble":"30.297775"},"longitude":{"$numberDouble":"-97.762921"},"location":{"type":"Point","coordinates":[{"$numberDouble":"-97.762921"},{"$numberDouble":"30.297775"}]}}}
{"_id":{"$oid":"52cdef7d4bab8bd675299d6c"},"name":"Microstaq","founded_year":null,"deadpooled_year":null,"description":null,"total_money_raised":"$17M","offices":{"description":"","address1":"4150 Freidrich Ln # A","address2":"","zip_code":"78744","city":"Austin","state_code":"TX","country_code":"USA","latitude":{"$numberDouble":"30.212566"},"longitude":{"$numberDouble":"-97.748221"},"location":{"type":"Point","coordinates":[{"$numberDouble":"-97.748221"},{"$numberDouble":"30.212566"}]}}}
{"_id":{"$oid":"52cdef7d4bab8bd675299d6a"},"name":"Smiley Media","founded_year":{"$numberInt":"2001"},"deadpooled_year":null,"description":"","total_money_raised":"$0","offices":{"description":"Headquarters","address1":"701 Brazos St.","address2":"Suite 1600","zip_code":"TX 78701","city":"Austin","state_code":"TX","country_code":"USA","latitude":{"$numberDouble":"30.268735"},"longitude":{"$numberDouble":"-97.745209"},"location":{"type":"Point","coordinates":[{"$numberDouble":"-97.745209"},{"$numberDouble":"30.268735"}]}}}
{"_id":{"$oid":"52cdef7d4bab8bd675299d70"},"name":"Pangea Software","founded_year":null,"deadpooled_year":null,"description":null,"total_money_raised":"$0","offices":{"description":"Headquarters","address1":"12405 John Simpson Court","address2":"","zip_code":"78732","city":"Austin","state_code":"TX","country_code":"USA","latitude":{"$numberDouble":"30.37364"},"longitude":{"$numberDouble":"-97.890227"},"location":{"type":"Point","coordinates":[{"$numberDouble":"-97.890227"},{"$numberDouble":"30.37364"}]}}}
{"_id":{"$oid":"52cdef7d4bab8bd675299d67"},"name":"Actacell","founded_year":null,"deadpooled_year":null,"description":null,"total_money_raised":"$9.8M","offices":{"description":"","address1":"ActaCell, Inc. 2105 Donley Drive Suite 200","address2":"","zip_code":"78758","city":"Austin","state_code":"TX","country_code":"USA","latitude":null,"longitude":null}}
{"_id":{"$oid":"52cdef7d4bab8bd675299d74"},"name":"CoreTrace","founded_year":{"$numberInt":"2007"},"deadpooled_year":null,"description":"Computer & Network Security","total_money_raised":"$16.9M","offices":{"description":"HQ","address1":"6500 River Place Blvd.","address2":"Building II, Suite 105","zip_code":"78730","city":"Austin","state_code":"TX","country_code":"USA","latitude":{"$numberDouble":"30.392018"},"longitude":{"$numberDouble":"-97.848345"},"location":{"type":"Point","coordinates":[{"$numberDouble":"-97.848345"},{"$numberDouble":"30.392018"}]}}}
{"_id":{"$oid":"52cdef7d4bab8bd675299d6f"},"name":"OneSpot","founded_year":{"$numberInt":"2005"},"deadpooled_year":null,"description":"Content Advertising","total_money_raised":"$11.7M","offices":{"description":"","address1":"701 Brazos St","address2":"Suite 1615","zip_code":"78701","city":"Austin","state_code":"TX","country_code":"USA","latitude":{"$numberDouble":"30.2686147"},"longitude":{"$numberDouble":"-97.7404872"},"location":{"type":"Point","coordinates":[{"$numberDouble":"-97.7404872"},{"$numberDouble":"30.2686147"}]}}}
{"_id":{"$oid":"52cdef7d4bab8bd675299d79"},"name":"Conjunctured","founded_year":{"$numberInt":"2008"},"deadpooled_year":null,"description":"Coworking in Austin","total_money_raised":"$0","offices":{"description":"Austin Coworking","address1":"1309 E. 7th St.","address2":"","zip_code":"78702","city":"Austin","state_code":"TX","country_code":"USA","latitude":{"$numberDouble":"30.264491"},"longitude":{"$numberDouble":"-97.728453"},"location":{"type":"Point","coordinates":[{"$numberDouble":"-97.728453"},{"$numberDouble":"30.264491"}]}}}
{"_id":{"$oid":"52cdef7d4bab8bd675299d63"},"name":"Enspire Learning","founded_year":{"$numberInt":"2001"},"deadpooled_year":null,"description":"","total_money_raised":"$0","offices":{"description":"Corporate Headquarters","address1":"1708 Guadalupe Street","address2":"","zip_code":"78701","city":"Austin","state_code":"TX","country_code":"USA","latitude":{"$numberDouble":"30.280364"},"longitude":{"$numberDouble":"-97.74247"},"location":{"type":"Point","coordinates":[{"$numberDouble":"-97.74247"},{"$numberDouble":"30.280364"}]}}}
{"_id":{"$oid":"52cdef7d4bab8bd675299d96"},"name":"302designs","founded_year":{"$numberInt":"2004"},"deadpooled_year":null,"description":null,"total_money_raised":"$0","offices":{"description":"Headquarters","address1":"1309 E. 7th Street","address2":"","zip_code":"78702","city":"Austin","state_code":"TX","country_code":"USA","latitude":{"$numberDouble":"30.264491"},"longitude":{"$numberDouble":"-97.728453"},"location":{"type":"Point","coordinates":[{"$numberDouble":"-97.728453"},{"$numberDouble":"30.264491"}]}}}
{"_id":{"$oid":"52cdef7d4bab8bd675299db2"},"name":"BuzzStream","founded_year":{"$numberInt":"2008"},"deadpooled_year":null,"description":"Search Engine Optimization","total_money_raised":"$75k","offices":{"description":"Austin USA","address1":"2414 Exposition Blvd","address2":"Suite B-120","zip_code":"78703","city":"Austin","state_code":"TX","country_code":"USA","latitude":{"$numberDouble":"30.290699"},"longitude":{"$numberDouble":"-97.750885"},"location":{"type":"Point","coordinates":[{"$numberDouble":"-97.750885"},{"$numberDouble":"30.290699"}]}}}
{"_id":{"$oid":"52cdef7d4bab8bd675299db3"},"name":"ApartmentRatings","founded_year":{"$numberInt":"2000"},"deadpooled_year":null,"description":"","total_money_raised":"$0","offices":{"description":"Austin","address1":"3112 Windsor Rd. #203","address2":"","zip_code":"78703","city":"Austin","state_code":"TX","country_code":"USA","latitude":{"$numberDouble":"30.296682"},"longitude":{"$numberDouble":"-97.767931"},"location":{"type":"Point","coordinates":[{"$numberDouble":"-97.767931"},{"$numberDouble":"30.296682"}]}}}
{"_id":{"$oid":"52cdef7d4bab8bd675299dbf"},"name":"BridgePose","founded_year":{"$numberInt":"2004"},"deadpooled_year":null,"description":null,"total_money_raised":"$0","offices":{"description":"Austin, TX","address1":"1700 Ravey St.","address2":"Suite A","zip_code":"78704","city":"Austin","state_code":"TX","country_code":"USA","latitude":{"$numberDouble":"30.244716"},"longitude":{"$numberDouble":"-97.773516"},"location":{"type":"Point","coordinates":[{"$numberDouble":"-97.773516"},{"$numberDouble":"30.244716"}]}}}
{"_id":{"$oid":"52cdef7d4bab8bd67529a219"},"name":"HillCast Technologies","founded_year":{"$numberInt":"2000"},"deadpooled_year":null,"description":"mobile applications","total_money_raised":"$0","offices":{"description":"HQ","address1":"906 East 5th Street","address2":"Suite 210","zip_code":"78702","city":"Austin","state_code":"TX","country_code":"USA","latitude":null,"longitude":null}}
{"_id":{"$oid":"52cdef7e4bab8bd67529a269"},"name":"ContentRealtime","founded_year":{"$numberInt":"2007"},"deadpooled_year":null,"description":null,"total_money_raised":"$50k","offices":{"description":"Headquarters","address1":"201 Winchester Drive","address2":"","zip_code":"78620","city":"Austin","state_code":"TX","country_code":"USA","latitude":{"$numberDouble":"30.211761"},"longitude":{"$numberDouble":"-97.767524"},"location":{"type":"Point","coordinates":[{"$numberDouble":"-97.767524"},{"$numberDouble":"30.211761"}]}}}
{"_id":{"$oid":"52cdef7e4bab8bd67529a28b"},"name":"The Search Engine Guys","founded_year":null,"deadpooled_year":null,"description":null,"total_money_raised":"$0","offices":{"description":"Main Office","address1":"3001 South Lamar Boulevard, Suite 350","address2":"","zip_code":"78704","city":"Austin","state_code":"TX","country_code":"USA","latitude":{"$numberDouble":"30.241964"},"longitude":{"$numberDouble":"-97.783193"},"location":{"type":"Point","coordinates":[{"$numberDouble":"-97.783193"},{"$numberDouble":"30.241964"}]}}}
{"_id":{"$oid":"52cdef7e4bab8bd67529a304"},"name":"QuickArrow","founded_year":{"$numberInt":"1998"},"deadpooled_year":null,"description":"professional services automation softwar","total_money_raised":"$0","offices":{"description":"HQ","address1":"11675 Jollyville Road","address2":"Suite 200","zip_code":"78759","city":"Austin","state_code":"TX","country_code":"USA","latitude":null,"longitude":null}}
{"_id":{"$oid":"52cdef7e4bab8bd67529a309"},"name":"Journyx","founded_year":{"$numberInt":"1996"},"deadpooled_year":null,"description":"project tracking solutions","total_money_raised":"$0","offices":{"description":"HQ","address1":"7600 Burnet Road","address2":"Suite 300","zip_code":"78757","city":"Austin","state_code":"TX","country_code":"USA","latitude":null,"longitude":null}}
{"_id":{"$oid":"52cdef7e4bab8bd67529a41d"},"name":"Scio Consulting","founded_year":{"$numberInt":"2003"},"deadpooled_year":null,"description":"Nearshore Application Development","total_money_raised":"$0","offices":{"description":"Headquarters","address1":"9111 Jollyville Road, Suite 100","address2":"","zip_code":"78759","city":"Austin","state_code":"TX","country_code":"USA","latitude":{"$numberDouble":"37.235298"},"longitude":{"$numberDouble":"-121.782424"},"location":{"type":"Point","coordinates":[{"$numberDouble":"-121.782424"},{"$numberDouble":"37.235298"}]}}}
{"_id":{"$oid":"52cdef7e4bab8bd67529a4d8"},"name":"LaunchPad Coworking","founded_year":{"$numberInt":"2009"},"deadpooled_year":null,"description":"","total_money_raised":"$0","offices":{"description":"LaunchPad Coworking","address1":"800 Brazos","address2":"","zip_code":"78701","city":"Austin","state_code":"TX","country_code":"USA","latitude":{"$numberDouble":"30.269967"},"longitude":{"$numberDouble":"-97.740833"},"location":{"type":"Point","coordinates":[{"$numberDouble":"-97.740833"},{"$numberDouble":"30.269967"}]}}}
{"_id":{"$oid":"52cdef7e4bab8bd67529a4dc"},"name":"Virtual Bridges","founded_year":{"$numberInt":"2006"},"deadpooled_year":null,"description":"Leading Desktop Virtualization Solution","total_money_raised":"$4M","offices":{"description":"Austin Office","address1":"6300 Bridge Point Parkway","address2":"Building 1; Suite 350","zip_code":"78730","city":"Austin","state_code":"TX","country_code":"USA","latitude":{"$numberDouble":"30.27995"},"longitude":{"$numberDouble":"-97.807274"},"location":{"type":"Point","coordinates":[{"$numberDouble":"-97.807274"},{"$numberDouble":"30.27995"}]}}}
{"_id":{"$oid":"52cdef7e4bab8bd67529a5c5"},"name":"BudURL","founded_year":{"$numberInt":"2008"},"deadpooled_year":null,"description":"","total_money_raised":"$0","offices":{"description":"Live Oak 360","address1":"12871 Research Blvd, Suite 200","address2":"","zip_code":"78750","city":"Austin","state_code":"TX","country_code":"USA","latitude":{"$numberDouble":"30.44936"},"longitude":{"$numberDouble":"-97.790145"},"location":{"type":"Point","coordinates":[{"$numberDouble":"-97.790145"},{"$numberDouble":"30.44936"}]}}}
{"_id":{"$oid":"52cdef7e4bab8bd67529a69d"},"name":"The Building Network","founded_year":{"$numberInt":"2004"},"deadpooled_year":null,"description":null,"total_money_raised":"$0","offices":{"description":"","address1":"13492 Research Blvd Suite 120","address2":"PMB 253","zip_code":"78750","city":"Austin","state_code":"TX","country_code":"USA","latitude":{"$numberDouble":"30.4489015"},"longitude":{"$numberDouble":"-97.7910119"},"location":{"type":"Point","coordinates":[{"$numberDouble":"-97.7910119"},{"$numberDouble":"30.4489015"}]}}}
{"_id":{"$oid":"52cdef7e4bab8bd67529a6fd"},"name":"TicketCity","founded_year":{"$numberInt":"1990"},"deadpooled_year":null,"description":"","total_money_raised":"$0","offices":{"description":"World Headquarters","address1":"5912 Balcones Drive","address2":"Suite 102","zip_code":"78731","city":"Austin","state_code":"TX","country_code":"USA","latitude":{"$numberDouble":"30.341865"},"longitude":{"$numberDouble":"-97.754644"},"location":{"type":"Point","coordinates":[{"$numberDouble":"-97.754644"},{"$numberDouble":"30.341865"}]}}}
{"_id":{"$oid":"52cdef7e4bab8bd67529a7e3"},"name":"WiredReach","founded_year":{"$numberInt":"2002"},"deadpooled_year":null,"description":null,"total_money_raised":"$0","offices":{"description":"Austin","address1":"5409 Montivew Street","address2":"","zip_code":"78756","city":"Austin","state_code":"TX","country_code":"USA","latitude":{"$numberDouble":"30.328825"},"longitude":{"$numberDouble":"-97.741092"},"location":{"type":"Point","coordinates":[{"$numberDouble":"-97.741092"},{"$numberDouble":"30.328825"}]}}}
{"_id":{"$oid":"52cdef7e4bab8bd67529a7db"},"name":"SolarWinds","founded_year":{"$numberInt":"1999"},"deadpooled_year":null,"description":"Network Management Software","total_money_raised":"$218M","offices":{"description":"HQ","address1":"3711 South MoPac Expressway","address2":"Building Two","zip_code":"78746","city":"Austin","state_code":"TX","country_code":"USA","latitude":{"$numberDouble":"30.245535"},"longitude":{"$numberDouble":"-97.805621"},"location":{"type":"Point","coordinates":[{"$numberDouble":"-97.805621"},{"$numberDouble":"30.245535"}]}}}
{"_id":{"$oid":"52cdef7e4bab8bd67529a7f8"},"name":"ReachForce","founded_year":{"$numberInt":"2005"},"deadpooled_year":null,"description":"","total_money_raised":"$14.5M","offices":{"description":"ReachForce HQ","address1":"9020-I Capital of TX Hwy N","address2":"Suite 270","zip_code":"78759","city":"Austin","state_code":"TX","country_code":"USA","latitude":{"$numberDouble":"30.389042"},"longitude":{"$numberDouble":"-97.756264"},"location":{"type":"Point","coordinates":[{"$numberDouble":"-97.756264"},{"$numberDouble":"30.389042"}]}}}
{"_id":{"$oid":"52cdef7e4bab8bd67529a894"},"name":"Itransition","founded_year":null,"deadpooled_year":null,"description":null,"total_money_raised":"$0","offices":{"description":"","address1":"115 S Wild Basin Rd,","address2":"Suite #306","zip_code":"78746","city":"Austin","state_code":"TX","country_code":"USA","latitude":{"$numberDouble":"30.304505"},"longitude":{"$numberDouble":"-97.827614"},"location":{"type":"Point","coordinates":[{"$numberDouble":"-97.827614"},{"$numberDouble":"30.304505"}]}}}
{"_id":{"$oid":"52cdef7e4bab8bd67529aaa6"},"name":"Deal Linker","founded_year":{"$numberInt":"2008"},"deadpooled_year":null,"description":"Bargain Hunting","total_money_raised":"$0","offices":{"description":"Headquarters","address1":"9600 Escarpment","address2":"Ste 745-144","zip_code":"78749","city":"Austin","state_code":"TX","country_code":"USA","latitude":{"$numberDouble":"30.2019822"},"longitude":{"$numberDouble":"-97.8781376"},"location":{"type":"Point","coordinates":[{"$numberDouble":"-97.8781376"},{"$numberDouble":"30.2019822"}]}}}
{"_id":{"$oid":"52cdef7e4bab8bd67529ac7b"},"name":"SensorTran","founded_year":{"$numberInt":"1996"},"deadpooled_year":null,"description":"temperature sensing systems","total_money_raised":"$17M","offices":{"description":"Austin, Texas","address1":"4401 Freidrich Lane,","address2":"Bldg. 307","zip_code":"78744","city":"Austin","state_code":"TN","country_code":"USA","latitude":{"$numberDouble":"30.208939"},"longitude":{"$numberDouble":"-97.749879"},"location":{"type":"Point","coordinates":[{"$numberDouble":"-97.749879"},{"$numberDouble":"30.208939"}]}}}
{"_id":{"$oid":"52cdef7e4bab8bd67529ac98"},"name":"Balcones Resources","founded_year":{"$numberInt":"1994"},"deadpooled_year":null,"description":"recycling services for offices","total_money_raised":"$0","offices":{"description":"HQ","address1":"1101 East 11th Street","address2":"","zip_code":"78702","city":"Austin","state_code":"TX","country_code":"USA","latitude":null,"longitude":null}}
{"_id":{"$oid":"52cdef7e4bab8bd67529ad35"},"name":"UpSpring","founded_year":{"$numberInt":"2005"},"deadpooled_year":null,"description":"Parent/child healthcare company","total_money_raised":"$2.6M","offices":{"description":"","address1":"8627 N. Mopac Expressway,","address2":"Ste. 150","zip_code":"78759","city":"Austin","state_code":"TX","country_code":"USA","latitude":{"$numberDouble":"30.396276"},"longitude":{"$numberDouble":"-97.732769"},"location":{"type":"Point","coordinates":[{"$numberDouble":"-97.732769"},{"$numberDouble":"30.396276"}]}}}
{"_id":{"$oid":"52cdef7e4bab8bd67529ad8b"},"name":"NetStreams","founded_year":null,"deadpooled_year":null,"description":"Digital entertainment network","total_money_raised":"$18.2M","offices":{"description":"","address1":"3600 W. Parmer Lane","address2":"Suite 100","zip_code":"78727","city":"Austin","state_code":"TX","country_code":"USA","latitude":{"$numberDouble":"30.424305"},"longitude":{"$numberDouble":"-97.709981"},"location":{"type":"Point","coordinates":[{"$numberDouble":"-97.709981"},{"$numberDouble":"30.424305"}]}}}
{"_id":{"$oid":"52cdef7e4bab8bd67529ae93"},"name":"Luminary Micro","founded_year":{"$numberInt":"2004"},"deadpooled_year":null,"description":"ARM Cortex-M3-based microcontrollers","total_money_raised":"$44M","offices":{"description":"HQ","address1":"108 Wild Basin Road South","address2":"Suite 350","zip_code":"78746","city":"Austin","state_code":"TX","country_code":"USA","latitude":{"$numberDouble":"30.306591"},"longitude":{"$numberDouble":"-97.826727"},"location":{"type":"Point","coordinates":[{"$numberDouble":"-97.826727"},{"$numberDouble":"30.306591"}]}}}
{"_id":{"$oid":"52cdef7e4bab8bd67529af06"},"name":"Conformity","founded_year":{"$numberInt":"2007"},"deadpooled_year":{"$numberInt":"2009"},"description":"Ondemand software solutions","total_money_raised":"$3M","offices":{"description":"Headquarters","address1":"6300 Bridge Point Parkway","address2":"One Bridgepoint - Suite 160","zip_code":"78730","city":"Austin","state_code":"TX","country_code":"USA","latitude":{"$numberDouble":"30.35504"},"longitude":{"$numberDouble":"-97.801083"},"location":{"type":"Point","coordinates":[{"$numberDouble":"-97.801083"},{"$numberDouble":"30.35504"}]}}}
{"_id":{"$oid":"52cdef7e4bab8bd67529b02a"},"name":"7 Billion People","founded_year":{"$numberInt":"2006"},"deadpooled_year":null,"description":"Web personalization service","total_money_raised":"$6.53M","offices":{"description":"Headquarters:","address1":"11130 Jollyville Road, Suite 302","address2":"","zip_code":"TX 78759","city":"Austin","state_code":"TX","country_code":"USA","latitude":{"$numberDouble":"30.408322"},"longitude":{"$numberDouble":"-97.748077"},"location":{"type":"Point","coordinates":[{"$numberDouble":"-97.748077"},{"$numberDouble":"30.408322"}]}}}
{"_id":{"$oid":"52cdef7e4bab8bd67529b10b"},"name":"EyeBuyDirect","founded_year":{"$numberInt":"2005"},"deadpooled_year":null,"description":"Prescription Eyewear","total_money_raised":"$0","offices":{"description":"Headquarters","address1":"2801 South IH35","address2":"Suite 170","zip_code":"78741","city":"Austin","state_code":"TX","country_code":"USA","latitude":{"$numberDouble":"38.9825332"},"longitude":{"$numberDouble":"-77.093279"},"location":{"type":"Point","coordinates":[{"$numberDouble":"-77.093279"},{"$numberDouble":"38.9825332"}]}}}
{"_id":{"$oid":"52cdef7e4bab8bd67529b26c"},"name":"Digby","founded_year":{"$numberInt":"2006"},"deadpooled_year":null,"description":"Real-Time Mobile Marketing","total_money_raised":"$18.3M","offices":{"description":"","address1":"3801 South Capital of Texas Highway","address2":"Barton Creek Plaza II, Suite 100","zip_code":"78704","city":"Austin","state_code":"TX","country_code":"USA","latitude":null,"longitude":null}}
{"_id":{"$oid":"52cdef7e4bab8bd67529b278"},"name":"BP3","founded_year":{"$numberInt":"2007"},"deadpooled_year":null,"description":"A business process company.","total_money_raised":"$0","offices":{"description":"Headquarters","address1":"7000 N Mopac Expy","address2":"Suite 345","zip_code":"78731","city":"Austin","state_code":"TX","country_code":"USA","latitude":{"$numberDouble":"30.342436"},"longitude":{"$numberDouble":"-97.7543"},"location":{"type":"Point","coordinates":[{"$numberDouble":"-97.7543"},{"$numberDouble":"30.342436"}]}}}
{"_id":{"$oid":"52cdef7e4bab8bd67529b277"},"name":"T3","founded_year":null,"deadpooled_year":null,"description":"Think Tank","total_money_raised":"$0","offices":{"description":"","address1":"1801 N. Lamar","address2":"","zip_code":"78701","city":"Austin","state_code":"TX","country_code":"USA","latitude":null,"longitude":null}}
{"_id":{"$oid":"52cdef7e4bab8bd67529b29b"},"name":"Lombardi Software","founded_year":{"$numberInt":"1999"},"deadpooled_year":null,"description":"Business Process Management Software","total_money_raised":"$7.95M","offices":{"description":"HQ","address1":"4516 Seton Center Parkway,","address2":"Suite 250","zip_code":"78759","city":"Austin","state_code":"TX","country_code":"USA","latitude":{"$numberDouble":"30.401175"},"longitude":{"$numberDouble":"-97.741635"},"location":{"type":"Point","coordinates":[{"$numberDouble":"-97.741635"},{"$numberDouble":"30.401175"}]}}}
{"_id":{"$oid":"52cdef7e4bab8bd67529b2ac"},"name":"UnboundID","founded_year":{"$numberInt":"2007"},"deadpooled_year":null,"description":"Identity management software","total_money_raised":"$14.5M","offices":{"description":"Corporate Headquarters","address1":"13809 Research Blvd.","address2":"Suite 500","zip_code":"78750","city":"Austin","state_code":"TX","country_code":"USA","latitude":{"$numberDouble":"30.498112"},"longitude":{"$numberDouble":"-97.777273"},"location":{"type":"Point","coordinates":[{"$numberDouble":"-97.777273"},{"$numberDouble":"30.498112"}]}}}
{"_id":{"$oid":"52cdef7e4bab8bd67529b366"},"name":"Llesiant","founded_year":null,"deadpooled_year":null,"description":"Web-based information service","total_money_raised":"$4.34M","offices":{"description":"Corporate Headquarters","address1":"8310 N. Capital of Texas Hwy","address2":"Building 1, Suite 340","zip_code":"78731","city":"Austin","state_code":"TX","country_code":"USA","latitude":{"$numberDouble":"30.385769"},"longitude":{"$numberDouble":"-97.768503"},"location":{"type":"Point","coordinates":[{"$numberDouble":"-97.768503"},{"$numberDouble":"30.385769"}]}}}
{"_id":{"$oid":"52cdef7e4bab8bd67529b378"},"name":"ePartners","founded_year":{"$numberInt":"1992"},"deadpooled_year":null,"description":"Microsoft Business Solutions Consultancy","total_money_raised":"$25M","offices":{"description":"ePartners - Austin","address1":"110 Wild Basin","address2":"Suite 350","zip_code":"78746","city":"Austin","state_code":"TX","country_code":"USA","latitude":{"$numberDouble":"30.306468"},"longitude":{"$numberDouble":"-97.827862"},"location":{"type":"Point","coordinates":[{"$numberDouble":"-97.827862"},{"$numberDouble":"30.306468"}]}}}
{"_id":{"$oid":"52cdef7e4bab8bd67529b37e"},"name":"Powered","founded_year":{"$numberInt":"1999"},"deadpooled_year":null,"description":"Leading Social Media Agency","total_money_raised":"$19.4M","offices":{"description":"World Headquarters","address1":"206 E. Ninth Street","address2":"14th Floor","zip_code":"78701","city":"Austin","state_code":"TX","country_code":"USA","latitude":null,"longitude":null}}
{"_id":{"$oid":"52cdef7e4bab8bd67529b450"},"name":"Whole Foods Market","founded_year":{"$numberInt":"1978"},"deadpooled_year":null,"description":"supermarkets","total_money_raised":"$0","offices":{"description":"HQ","address1":"550 Bowie Street","address2":"","zip_code":"78703-4677","city":"Austin","state_code":"TX","country_code":"USA","latitude":null,"longitude":null}}
{"_id":{"$oid":"52cdef7e4bab8bd67529b44c"},"name":"NiceKicks","founded_year":{"$numberInt":"2006"},"deadpooled_year":null,"description":"","total_money_raised":"$0","offices":{"description":"HQ","address1":"2815B Guadalupe St","address2":"","zip_code":"78705","city":"Austin","state_code":"TX","country_code":"USA","latitude":null,"longitude":null}}
{"_id":{"$oid":"52cdef7e4bab8bd67529b58c"},"name":"Uvumi","founded_year":{"$numberInt":"2008"},"deadpooled_year":null,"description":"Music Social Network","total_money_raised":"$0","offices":{"description":"Austin","address1":"PO Box 30047","address2":"","zip_code":"78755","city":"Austin","state_code":"TX","country_code":"USA","latitude":{"$numberDouble":"30.2667"},"longitude":{"$numberDouble":"-97.7428"},"location":{"type":"Point","coordinates":[{"$numberDouble":"-97.7428"},{"$numberDouble":"30.2667"}]}}}
{"_id":{"$oid":"52cdef7e4bab8bd67529b5b7"},"name":"Soar Consulting","founded_year":null,"deadpooled_year":null,"description":"Military Transition Consulting","total_money_raised":"$0","offices":{"description":"HQ","address1":"6034 West Courtyard Drive","address2":"#150","zip_code":"78730","city":"Austin","state_code":"TX","country_code":"USA","latitude":null,"longitude":null}}
{"_id":{"$oid":"52cdef7e4bab8bd67529b5b8"},"name":"Talent Alliance","founded_year":{"$numberInt":"2001"},"deadpooled_year":null,"description":"Global HR Services","total_money_raised":"$0","offices":{"description":"Corporate HQ","address1":"500 N Capital of Texas Highway","address2":"Bldg 3, 2nd Floor","zip_code":"78746","city":"Austin","state_code":"TX","country_code":"USA","latitude":{"$numberDouble":"30.307955"},"longitude":{"$numberDouble":"-97.828408"},"location":{"type":"Point","coordinates":[{"$numberDouble":"-97.828408"},{"$numberDouble":"30.307955"}]}}}
{"_id":{"$oid":"52cdef7e4bab8bd67529b5d3"},"name":"qcue","founded_year":{"$numberInt":"2007"},"deadpooled_year":null,"description":"Dynamic Pricing Solutions","total_money_raised":"$1.13M","offices":{"description":"Corporate HQ","address1":"3925 W Braker Ln","address2":"","zip_code":"78759","city":"Austin","state_code":"TX","country_code":"USA","latitude":{"$numberDouble":"30.396989"},"longitude":{"$numberDouble":"-97.735768"},"location":{"type":"Point","coordinates":[{"$numberDouble":"-97.735768"},{"$numberDouble":"30.396989"}]}}}
{"_id":{"$oid":"52cdef7e4bab8bd67529b61e"},"name":"S3 Matching Technologies","founded_year":{"$numberInt":"2002"},"deadpooled_year":null,"description":"Capital Markets Software","total_money_raised":"$0","offices":{"description":"S3 Matching Technologies","address1":"6500 River Place Blvd","address2":"Bldg 2 Ste 306","zip_code":"78730","city":"Austin","state_code":"TX","country_code":"USA","latitude":{"$numberDouble":"30.3967276"},"longitude":{"$numberDouble":"-97.8516082"},"location":{"type":"Point","coordinates":[{"$numberDouble":"-97.8516082"},{"$numberDouble":"30.3967276"}]}}}
{"_id":{"$oid":"52cdef7e4bab8bd67529b669"},"name":"Red McCombs Media","founded_year":{"$numberInt":"2000"},"deadpooled_year":null,"description":"online advertising and campaign manageme","total_money_raised":"$0","offices":{"description":"Home Office","address1":"9101 Burnet Road","address2":"Suite 203","zip_code":"78758","city":"Austin","state_code":"TX","country_code":"USA","latitude":{"$numberDouble":"30.374414"},"longitude":{"$numberDouble":"-97.725204"},"location":{"type":"Point","coordinates":[{"$numberDouble":"-97.725204"},{"$numberDouble":"30.374414"}]}}}
{"_id":{"$oid":"52cdef7e4bab8bd67529b6d2"},"name":"DealBk","founded_year":null,"deadpooled_year":null,"description":"Mobile Coupon Book","total_money_raised":"$0","offices":{"description":"Headquarter","address1":"4600 Mueller Blvd","address2":"","zip_code":"78723","city":"Austin","state_code":"TX","country_code":"USA","latitude":null,"longitude":null}}
{"_id":{"$oid":"52cdef7e4bab8bd67529b6d6"},"name":"Identiphi","founded_year":null,"deadpooled_year":null,"description":"Biometric Product Developer","total_money_raised":"$0","offices":{"description":"HQ","address1":"13809 Research Boulevard","address2":"Suite 275","zip_code":"78750","city":"Austin","state_code":"TX","country_code":"USA","latitude":null,"longitude":null}}
{"_id":{"$oid":"52cdef7e4bab8bd67529b6d9"},"name":"Phurnace Software","founded_year":{"$numberInt":"2007"},"deadpooled_year":null,"description":"Java EE configuration","total_money_raised":"$10M","offices":{"description":"HQ","address1":"707 Rio Grande,","address2":"Suite 100","zip_code":"78701","city":"Austin","state_code":"TX","country_code":"USA","latitude":{"$numberDouble":"30.271393"},"longitude":{"$numberDouble":"-97.748623"},"location":{"type":"Point","coordinates":[{"$numberDouble":"-97.748623"},{"$numberDouble":"30.271393"}]}}}
{"_id":{"$oid":"52cdef7e4bab8bd67529b750"},"name":"StoredIQ","founded_year":{"$numberInt":"2001"},"deadpooled_year":null,"description":"eDiscovery and Information Management","total_money_raised":"$44.5M","offices":{"description":"Stored IQ, Inc","address1":"4401 West Gate Blvd. Suite 300","address2":"","zip_code":"78745","city":"Austin","state_code":"TX","country_code":"USA","latitude":{"$numberDouble":"30.213531"},"longitude":{"$numberDouble":"-97.815012"},"location":{"type":"Point","coordinates":[{"$numberDouble":"-97.815012"},{"$numberDouble":"30.213531"}]}}}
{"_id":{"$oid":"52cdef7e4bab8bd67529b849"},"name":"MyEdu","founded_year":{"$numberInt":"2009"},"deadpooled_year":null,"description":"Succeed in college, and get a job.","total_money_raised":"$18.7M","offices":{"description":"Corporate Office","address1":"1301 S. MoPac Expy","address2":"Ste. 250","zip_code":"78746","city":"Austin","state_code":"TX","country_code":"USA","latitude":{"$numberDouble":"30.288159"},"longitude":{"$numberDouble":"-97.750154"},"location":{"type":"Point","coordinates":[{"$numberDouble":"-97.750154"},{"$numberDouble":"30.288159"}]}}}
{"_id":{"$oid":"52cdef7e4bab8bd67529b8d5"},"name":"LegalZoom","founded_year":{"$numberInt":"1999"},"deadpooled_year":null,"description":"online legal document services","total_money_raised":"$266M","offices":{"description":"Austin Office","address1":"10900 Stonelake Boulevard","address2":"Suite A-320","zip_code":"78759","city":"Austin","state_code":"TX","country_code":"USA","latitude":null,"longitude":null}}
{"_id":{"$oid":"52cdef7e4bab8bd67529b8c0"},"name":"Infochimps","founded_year":{"$numberInt":"2009"},"deadpooled_year":null,"description":"Big Data Solutions","total_money_raised":"$5.35M","offices":{"description":"Infochimps House of Data","address1":"1214 W 6th St","address2":"Suite 202","zip_code":"78703","city":"Austin","state_code":"TX","country_code":"USA","latitude":{"$numberDouble":"30.2734822"},"longitude":{"$numberDouble":"-97.7588828"},"location":{"type":"Point","coordinates":[{"$numberDouble":"-97.7588828"},{"$numberDouble":"30.2734822"}]}}}
{"_id":{"$oid":"52cdef7e4bab8bd67529b911"},"name":"Metreos Corporation","founded_year":{"$numberInt":"2001"},"deadpooled_year":null,"description":"IP Telephony Development Tools","total_money_raised":"$4.36M","offices":{"description":"Headquarters","address1":"4414 Westgate Blvd","address2":"","zip_code":"78735","city":"Austin","state_code":"TX","country_code":"USA","latitude":{"$numberDouble":"30.2350399"},"longitude":{"$numberDouble":"-97.8001299"},"location":{"type":"Point","coordinates":[{"$numberDouble":"-97.8001299"},{"$numberDouble":"30.2350399"}]}}}
{"_id":{"$oid":"52cdef7e4bab8bd67529b9ee"},"name":"Zumbua","founded_year":{"$numberInt":"2009"},"deadpooled_year":{"$numberInt":"2010"},"description":"","total_money_raised":"$0","offices":{"description":"Headquarters","address1":"PO Box 300703","address2":"","zip_code":"78703","city":"Austin","state_code":"TX","country_code":"USA","latitude":null,"longitude":null}}
{"_id":{"$oid":"52cdef7e4bab8bd67529bace"},"name":"Uplogix","founded_year":{"$numberInt":"2003"},"deadpooled_year":null,"description":"Remote management solution","total_money_raised":"$42.8M","offices":{"description":"HQ","address1":"7600B N. Capital of Texas Hwy","address2":"Suite 220","zip_code":"78731-1189","city":"Austin","state_code":"TX","country_code":"USA","latitude":{"$numberDouble":"30.3752527"},"longitude":{"$numberDouble":"-97.7815663"},"location":{"type":"Point","coordinates":[{"$numberDouble":"-97.7815663"},{"$numberDouble":"30.3752527"}]}}}
{"_id":{"$oid":"52cdef7e4bab8bd67529bad2"},"name":"AllClear ID","founded_year":{"$numberInt":"2004"},"deadpooled_year":null,"description":"Alert Network","total_money_raised":"$9.3M","offices":{"description":"Corporate Headquarters","address1":"823 Congress Avenue","address2":"Suite 300","zip_code":"78701","city":"Austin","state_code":"TX","country_code":"USA","latitude":{"$numberDouble":"30.2708829"},"longitude":{"$numberDouble":"-97.7418001"},"location":{"type":"Point","coordinates":[{"$numberDouble":"-97.7418001"},{"$numberDouble":"30.2708829"}]}}}
{"_id":{"$oid":"52cdef7e4bab8bd67529bb1b"},"name":"Bigfoot Networks","founded_year":{"$numberInt":"2006"},"deadpooled_year":null,"description":"Premium Gaming Hardware","total_money_raised":"$20.8M","offices":{"description":"Texas Office","address1":"12301-B Riata Trace Parkway","address2":"Suite 110","zip_code":"78727","city":"Austin","state_code":"TX","country_code":"USA","latitude":{"$numberDouble":"30.42845"},"longitude":{"$numberDouble":"-97.748816"},"location":{"type":"Point","coordinates":[{"$numberDouble":"-97.748816"},{"$numberDouble":"30.42845"}]}}}
{"_id":{"$oid":"52cdef7e4bab8bd67529bb8a"},"name":"Illumitex","founded_year":{"$numberInt":"2005"},"deadpooled_year":null,"description":"LED Technology Innovator","total_money_raised":"$54.4M","offices":{"description":"Corporate Headquarters","address1":"5307 Industrial Oaks Blvd.","address2":"Suite 100","zip_code":"78735","city":"Austin","state_code":"TX","country_code":"USA","latitude":{"$numberDouble":"30.239294"},"longitude":{"$numberDouble":"-97.838813"},"location":{"type":"Point","coordinates":[{"$numberDouble":"-97.838813"},{"$numberDouble":"30.239294"}]}}}
{"_id":{"$oid":"52cdef7e4bab8bd67529bbc0"},"name":"MMIC Solutions","founded_year":{"$numberInt":"2005"},"deadpooled_year":null,"description":"High Frequency Technology","total_money_raised":"$6.25M","offices":{"description":"MMIC Solutions Inc","address1":"3925 W Braker Ln","address2":"","zip_code":"78759-5316","city":"Austin","state_code":"TX","country_code":"USA","latitude":{"$numberDouble":"30.396989"},"longitude":{"$numberDouble":"-97.735768"},"location":{"type":"Point","coordinates":[{"$numberDouble":"-97.735768"},{"$numberDouble":"30.396989"}]}}}
{"_id":{"$oid":"52cdef7f4bab8bd67529bd68"},"name":"BuildForge","founded_year":{"$numberInt":"2001"},"deadpooled_year":null,"description":"process management software solutions","total_money_raised":"$6M","offices":{"description":"HQ","address1":"3925 West Braker Lane","address2":"Suite 3.408","zip_code":"78759","city":"Austin","state_code":"TX","country_code":"USA","latitude":null,"longitude":null}}
{"_id":{"$oid":"52cdef7f4bab8bd67529beb6"},"name":"EZCorp","founded_year":null,"deadpooled_year":null,"description":"","total_money_raised":"$30.6M","offices":{"description":"","address1":"1901 Capital Parkway","address2":"","zip_code":"78746","city":"Austin","state_code":"TX","country_code":"USA","latitude":null,"longitude":null}}
{"_id":{"$oid":"52cdef7f4bab8bd67529bece"},"name":"uControl","founded_year":{"$numberInt":"2006"},"deadpooled_year":null,"description":"Home Security, Automation Platform","total_money_raised":"$3.9M","offices":{"description":"HQ","address1":"5914 West Courtyard Dr.","address2":"Suite 210","zip_code":"78730","city":"Austin","state_code":"TX","country_code":"USA","latitude":{"$numberDouble":"30.3542873"},"longitude":{"$numberDouble":"-97.7976572"},"location":{"type":"Point","coordinates":[{"$numberDouble":"-97.7976572"},{"$numberDouble":"30.3542873"}]}}}
{"_id":{"$oid":"52cdef7f4bab8bd67529bf2d"},"name":"Tangoe","founded_year":{"$numberInt":"2000"},"deadpooled_year":null,"description":"Business Telecommuncation management","total_money_raised":"$24.2M","offices":{"description":"Tangoe Austin","address1":"9801 Metric Blvd.","address2":"Suite 300","zip_code":"78758","city":"Austin","state_code":"SD","country_code":"USA","latitude":null,"longitude":null}}
{"_id":{"$oid":"52cdef7f4bab8bd67529bf67"},"name":"Motion Computing","founded_year":{"$numberInt":"2001"},"deadpooled_year":null,"description":"","total_money_raised":"$11.6M","offices":{"description":"Corporate headquarters","address1":"8601 RR 2222","address2":"Building II","zip_code":"78730","city":"Austin","state_code":"TX","country_code":"USA","latitude":{"$numberDouble":"30.182285"},"longitude":{"$numberDouble":"-97.806787"},"location":{"type":"Point","coordinates":[{"$numberDouble":"-97.806787"},{"$numberDouble":"30.182285"}]}}}
{"_id":{"$oid":"52cdef7f4bab8bd67529bf95"},"name":"Promo Resources","founded_year":{"$numberInt":"2003"},"deadpooled_year":null,"description":"Promotional Product Supplier","total_money_raised":"$0","offices":{"description":"Promo Resources","address1":"3939 Bee Cave Rd","address2":"Suite A-6","zip_code":"78746","city":"Austin","state_code":"TX","country_code":"USA","latitude":{"$numberDouble":"30.281388"},"longitude":{"$numberDouble":"-97.809669"},"location":{"type":"Point","coordinates":[{"$numberDouble":"-97.809669"},{"$numberDouble":"30.281388"}]}}}
{"_id":{"$oid":"52cdef7f4bab8bd67529bff0"},"name":"HomePros","founded_year":{"$numberInt":"2008"},"deadpooled_year":null,"description":"Home Improvement Social Network","total_money_raised":"$0","offices":{"description":"","address1":"12708 Riata Vista Circle","address2":"Suite A-106","zip_code":"78727","city":"Austin","state_code":"TX","country_code":"USA","latitude":{"$numberDouble":"30.43385"},"longitude":{"$numberDouble":"-97.739316"},"location":{"type":"Point","coordinates":[{"$numberDouble":"-97.739316"},{"$numberDouble":"30.43385"}]}}}
{"_id":{"$oid":"52cdef7f4bab8bd67529bfee"},"name":"Perficient","founded_year":{"$numberInt":"1998"},"deadpooled_year":null,"description":"IT Consulting Firm","total_money_raised":"$57.9M","offices":{"description":"Headquarters","address1":"1120 S Capital of Texas Hwy","address2":"Bldg. 3, Ste 220","zip_code":"78746","city":"Austin","state_code":"TX","country_code":"USA","latitude":{"$numberDouble":"30.28113"},"longitude":{"$numberDouble":"-97.824782"},"location":{"type":"Point","coordinates":[{"$numberDouble":"-97.824782"},{"$numberDouble":"30.28113"}]}}}
{"_id":{"$oid":"52cdef7f4bab8bd67529bfff"},"name":"Accent Food Services","founded_year":{"$numberInt":"1986"},"deadpooled_year":null,"description":"supplies food products","total_money_raised":"$0","offices":{"description":"HQ","address1":"P.O. Box 80175","address2":"","zip_code":"78708","city":"Austin","state_code":"TX","country_code":"USA","latitude":null,"longitude":null}}
{"_id":{"$oid":"52cdef7f4bab8bd67529c01d"},"name":"Quintiles","founded_year":null,"deadpooled_year":null,"description":"","total_money_raised":"$1M","offices":{"description":"","address1":"1701 Directors Boulevard Suite 730","address2":"","zip_code":"78744","city":"Austin","state_code":"TX","country_code":"USA","latitude":{"$numberDouble":"30.213039"},"longitude":{"$numberDouble":"-97.751754"},"location":{"type":"Point","coordinates":[{"$numberDouble":"-97.751754"},{"$numberDouble":"30.213039"}]}}}
{"_id":{"$oid":"52cdef7f4bab8bd67529c27d"},"name":"Nuventix","founded_year":{"$numberInt":"2003"},"deadpooled_year":null,"description":"Thermal management and cooling","total_money_raised":"$33.1M","offices":{"description":"","address1":"4635 Boston Lane","address2":"","zip_code":"78735","city":"Austin","state_code":"TX","country_code":"USA","latitude":{"$numberDouble":"30.239229"},"longitude":{"$numberDouble":"-97.834211"},"location":{"type":"Point","coordinates":[{"$numberDouble":"-97.834211"},{"$numberDouble":"30.239229"}]}}}
{"_id":{"$oid":"52cdef7f4bab8bd67529c291"},"name":"SpectraLinear","founded_year":{"$numberInt":"2006"},"deadpooled_year":null,"description":"timing circuits","total_money_raised":"$39M","offices":{"description":null,"address1":null,"address2":null,"zip_code":null,"city":"Austin","state_code":"TX","country_code":"USA","latitude":{"$numberDouble":"30.267153"},"longitude":{"$numberDouble":"-97.7430608"},"location":{"type":"Point","coordinates":[{"$numberDouble":"-97.7430608"},{"$numberDouble":"30.267153"}]}}}
{"_id":{"$oid":"52cdef7f4bab8bd67529c399"},"name":"Alliance Tech","founded_year":null,"deadpooled_year":null,"description":"RFID-enabled event measurement","total_money_raised":"$0","offices":{"description":"Corporate Headquarters","address1":"6011 W Courtyard Drive","address2":"Suite 400","zip_code":"78730","city":"Austin","state_code":"TX","country_code":"USA","latitude":{"$numberDouble":"30.354768"},"longitude":{"$numberDouble":"-97.798152"},"location":{"type":"Point","coordinates":[{"$numberDouble":"-97.798152"},{"$numberDouble":"30.354768"}]}}}
{"_id":{"$oid":"52cdef7f4bab8bd67529c396"},"name":"AlterPoint","founded_year":{"$numberInt":"2001"},"deadpooled_year":null,"description":"Network Governance Software","total_money_raised":"$26.8M","offices":{"description":"HQ","address1":"6011 W. Courtyard Drive, Suite 300","address2":"","zip_code":"78730","city":"Austin","state_code":"TX","country_code":"USA","latitude":{"$numberDouble":"30.354768"},"longitude":{"$numberDouble":"-97.798152"},"location":{"type":"Point","coordinates":[{"$numberDouble":"-97.798152"},{"$numberDouble":"30.354768"}]}}}
{"_id":{"$oid":"52cdef7f4bab8bd67529c39e"},"name":"Pelorus Technology","founded_year":null,"deadpooled_year":null,"description":"Enterprise Training/Education Programs","total_money_raised":"$0","offices":{"description":"","address1":"100 Congress Ave.","address2":"Suite 2000","zip_code":"78701","city":"Austin","state_code":"TX","country_code":"USA","latitude":{"$numberDouble":"30.264043"},"longitude":{"$numberDouble":"-97.744762"},"location":{"type":"Point","coordinates":[{"$numberDouble":"-97.744762"},{"$numberDouble":"30.264043"}]}}}
{"_id":{"$oid":"52cdef7f4bab8bd67529c441"},"name":"Neverfail","founded_year":{"$numberInt":"1993"},"deadpooled_year":null,"description":"","total_money_raised":"$10M","offices":{"description":"U.S. Offices","address1":"5914 West Courtyard Drive","address2":"Plaza II, Suite 160-B","zip_code":"78730","city":"Austin","state_code":"TX","country_code":"USA","latitude":null,"longitude":null}}
{"_id":{"$oid":"52cdef7f4bab8bd67529c4c6"},"name":"Savara Pharmaceuticals","founded_year":{"$numberInt":"2007"},"deadpooled_year":null,"description":"inhalation drug delivery platform","total_money_raised":"$30.2M","offices":{"description":"","address1":"3925 West Braker Lane","address2":"","zip_code":"78759","city":"Austin","state_code":"TX","country_code":"USA","latitude":null,"longitude":null}}
{"_id":{"$oid":"52cdef7f4bab8bd67529c66d"},"name":"EscapeHomes","founded_year":{"$numberInt":"1998"},"deadpooled_year":null,"description":"travel homes","total_money_raised":"$0","offices":{"description":"","address1":"3801 South Capital of Texas Highway","address2":"Suite 150","zip_code":"78704","city":"Austin","state_code":"TX","country_code":"USA","latitude":null,"longitude":null}}
